city,city_ascii,state_id,state_name,county_fips,county_name,lat,lng
New York,New York,NY,New York,36081,Queens,40.6943,-73.9249
Los Angeles,Los Angeles,CA,California,6037,Los Angeles,34.1141,-118.4068
Chicago,Chicago,IL,Illinois,17031,Cook,41.8375,-87.6866
Miami,Miami,FL,Florida,12086,Miami-Dade,25.784,-80.2101
Houston,Houston,TX,Texas,48201,Harris,29.786,-95.3885
Dallas,Dallas,TX,Texas,48113,Dallas,32.7935,-96.7667
Philadelphia,Philadelphia,PA,Pennsylvania,42101,Philadelphia,40.0077,-75.1339
Atlanta,Atlanta,GA,Georgia,13121,Fulton,33.7628,-84.422
Washington,Washington,DC,District of Columbia,11001,District of Columbia,38.9047,-77.0163
Boston,Boston,MA,Massachusetts,25025,Suffolk,42.3188,-71.0852
Phoenix,Phoenix,AZ,Arizona,4013,Maricopa,33.5722,-112.0892
Detroit,Detroit,MI,Michigan,26163,Wayne,42.3834,-83.1024
Seattle,Seattle,WA,Washington,53033,King,47.6211,-122.3244
San Francisco,San Francisco,CA,California,6075,San Francisco,37.7558,-122.4449
San Diego,San Diego,CA,California,6073,San Diego,32.8313,-117.1222
Minneapolis,Minneapolis,MN,Minnesota,27053,Hennepin,44.9635,-93.2678
Tampa,Tampa,FL,Florida,12057,Hillsborough,27.9945,-82.4447
Brooklyn,Brooklyn,NY,New York,36047,Kings,40.6501,-73.9496
Denver,Denver,CO,Colorado,8031,Denver,39.762,-104.8758
Queens,Queens,NY,New York,36081,Queens,40.7498,-73.7976
Riverside,Riverside,CA,California,6065,Riverside,33.9381,-117.3949
Las Vegas,Las Vegas,NV,Nevada,32003,Clark,36.2333,-115.2654
Baltimore,Baltimore,MD,Maryland,24510,Baltimore,39.3051,-76.6144
St. Louis,St. Louis,MO,Missouri,29510,St. Louis,38.6359,-90.2451
Portland,Portland,OR,Oregon,41051,Multnomah,45.5371,-122.65
San Antonio,San Antonio,TX,Texas,48029,Bexar,29.4632,-98.5238
Sacramento,Sacramento,CA,California,6067,Sacramento,38.5677,-121.4685
Austin,Austin,TX,Texas,48453,Travis,30.3005,-97.7522
Orlando,Orlando,FL,Florida,12095,Orange,28.4773,-81.337
San Juan,San Juan,PR,Puerto Rico,72127,San Juan,18.3985,-66.061
San Jose,San Jose,CA,California,6085,Santa Clara,37.3012,-121.848
Pittsburgh,Pittsburgh,PA,Pennsylvania,42003,Allegheny,40.4397,-79.9763
Indianapolis,Indianapolis,IN,Indiana,18097,Marion,39.7771,-86.1458
Manhattan,Manhattan,NY,New York,36061,New York,40.7834,-73.9662
Cincinnati,Cincinnati,OH,Ohio,39061,Hamilton,39.1413,-84.506
Kansas City,Kansas City,MO,Missouri,29095,Jackson,39.1238,-94.5541
Cleveland,Cleveland,OH,Ohio,39035,Cuyahoga,41.4764,-81.6805
Columbus,Columbus,OH,Ohio,39049,Franklin,39.9862,-82.9855
Bronx,Bronx,NY,New York,36005,Bronx,40.8501,-73.8662
Virginia Beach,Virginia Beach,VA,Virginia,51810,Virginia Beach,36.7335,-76.0435
Charlotte,Charlotte,NC,North Carolina,37119,Mecklenburg,35.2083,-80.8303
Milwaukee,Milwaukee,WI,Wisconsin,55079,Milwaukee,43.0642,-87.9675
Providence,Providence,RI,Rhode Island,44007,Providence,41.823,-71.4187
Jacksonville,Jacksonville,FL,Florida,12031,Duval,30.3322,-81.6749
Nashville,Nashville,TN,Tennessee,47037,Davidson,36.1715,-86.7842
Salt Lake City,Salt Lake City,UT,Utah,49035,Salt Lake,40.7776,-111.9311
Raleigh,Raleigh,NC,North Carolina,37183,Wake,35.8324,-78.6429
Richmond,Richmond,VA,Virginia,51760,Richmond,37.5295,-77.4756
Memphis,Memphis,TN,Tennessee,47157,Shelby,35.1087,-89.9663
Oklahoma City,Oklahoma City,OK,Oklahoma,40109,Oklahoma,35.4676,-97.5136
Hartford,Hartford,CT,Connecticut,9110,Capitol,41.7661,-72.6834
Louisville,Louisville,KY,Kentucky,21111,Jefferson,38.1663,-85.6485
Buffalo,Buffalo,NY,New York,36029,Erie,42.9018,-78.8487
New Orleans,New Orleans,LA,Louisiana,22071,Orleans,30.0687,-89.9288
Fort Worth,Fort Worth,TX,Texas,48439,Tarrant,32.7817,-97.3474
Bridgeport,Bridgeport,CT,Connecticut,9120,Greater Bridgeport,41.1918,-73.1954
Tucson,Tucson,AZ,Arizona,4019,Pima,32.1541,-110.8787
El Paso,El Paso,TX,Texas,48141,El Paso,31.8476,-106.43
Omaha,Omaha,NE,Nebraska,31055,Douglas,41.2627,-96.0529
McAllen,McAllen,TX,Texas,48215,Hidalgo,26.2252,-98.2467
Birmingham,Birmingham,AL,Alabama,1073,Jefferson,33.5279,-86.7971
Albuquerque,Albuquerque,NM,New Mexico,35001,Bernalillo,35.1054,-106.6465
Tulsa,Tulsa,OK,Oklahoma,40143,Tulsa,36.1283,-95.9042
Fresno,Fresno,CA,California,6019,Fresno,36.783,-119.7939
Charleston,Charleston,SC,South Carolina,45019,Charleston,32.8168,-79.9687
Rochester,Rochester,NY,New York,36055,Monroe,43.168,-77.6162
Dayton,Dayton,OH,Ohio,39113,Montgomery,39.7805,-84.2003
Cape Coral,Cape Coral,FL,Florida,12071,Lee,26.6443,-81.9957
Mission Viejo,Mission Viejo,CA,California,6059,Orange,33.6096,-117.6551
Colorado Springs,Colorado Springs,CO,Colorado,8041,El Paso,38.8674,-104.7605
Baton Rouge,Baton Rouge,LA,Louisiana,22033,East Baton Rouge,30.442,-91.1311
Allentown,Allentown,PA,Pennsylvania,42077,Lehigh,40.5961,-75.4756
Ogden,Ogden,UT,Utah,49057,Weber,41.2279,-111.9682
Provo,Provo,UT,Utah,49049,Utah,40.2457,-111.6457
Knoxville,Knoxville,TN,Tennessee,47093,Knox,35.9692,-83.9496
Grand Rapids,Grand Rapids,MI,Michigan,26081,Kent,42.9619,-85.6562
Columbia,Columbia,SC,South Carolina,45079,Richland,34.0378,-80.9036
Albany,Albany,NY,New York,36001,Albany,42.6664,-73.7987
Bakersfield,Bakersfield,CA,California,6029,Kern,35.3529,-119.0359
New Haven,New Haven,CT,Connecticut,9170,South Central Connecticut,41.3113,-72.9246
Des Moines,Des Moines,IA,Iowa,19153,Polk,41.5725,-93.6105
Akron,Akron,OH,Ohio,39153,Summit,41.0798,-81.5219
Palm Bay,Palm Bay,FL,Florida,12009,Brevard,27.9631,-80.6593
Concord,Concord,CA,California,6013,Contra Costa,37.9722,-122.0016
Wichita,Wichita,KS,Kansas,20173,Sedgwick,37.6895,-97.3443
Mesa,Mesa,AZ,Arizona,4013,Maricopa,33.4015,-111.7178
Harrisburg,Harrisburg,PA,Pennsylvania,42043,Dauphin,40.2752,-76.8843
Staten Island,Staten Island,NY,New York,36085,Richmond,40.5834,-74.1496
Toledo,Toledo,OH,Ohio,39095,Lucas,41.6638,-83.5827
Worcester,Worcester,MA,Massachusetts,25027,Worcester,42.2705,-71.8079
Long Beach,Long Beach,CA,California,6037,Los Angeles,33.7977,-118.167
Port St. Lucie,Port St. Lucie,FL,Florida,12111,St. Lucie,27.2796,-80.3884
Little Rock,Little Rock,AR,Arkansas,5119,Pulaski,34.7256,-92.3577
Reno,Reno,NV,Nevada,32031,Washoe,39.5497,-119.8483
Spokane,Spokane,WA,Washington,53063,Spokane,47.6671,-117.433
Madison,Madison,WI,Wisconsin,55025,Dane,43.0822,-89.393
Boise,Boise,ID,Idaho,16001,Ada,43.6005,-116.2308
Bonita Springs,Bonita Springs,FL,Florida,12071,Lee,26.3558,-81.7859
Denton,Denton,TX,Texas,48121,Denton,33.2175,-97.1418
Oakland,Oakland,CA,California,6001,Alameda,37.7904,-122.2166
Springfield,Springfield,MA,Massachusetts,25013,Hampden,42.1155,-72.5395
Augusta,Augusta,GA,Georgia,13245,Richmond,33.3645,-82.0708
Kissimmee,Kissimmee,FL,Florida,12097,Osceola,28.3041,-81.4169
Winston-Salem,Winston-Salem,NC,North Carolina,37067,Forsyth,36.1029,-80.261
Stockton,Stockton,CA,California,6077,San Joaquin,37.9765,-121.3109
Syracuse,Syracuse,NY,New York,36067,Onondaga,43.0407,-76.1437
Chattanooga,Chattanooga,TN,Tennessee,47065,Hamilton,35.066,-85.2481
Lancaster,Lancaster,PA,Pennsylvania,42071,Lancaster,40.042,-76.3012
Greenville,Greenville,SC,South Carolina,45045,Greenville,34.8354,-82.3646
Durham,Durham,NC,North Carolina,37063,Durham,35.9792,-78.9022
Pensacola,Pensacola,FL,Florida,12033,Escambia,30.4413,-87.1911
Fayetteville,Fayetteville,AR,Arkansas,5143,Washington,36.0714,-94.1661
Arlington,Arlington,TX,Texas,48439,Tarrant,32.6998,-97.125
Aurora,Aurora,CO,Colorado,8005,Arapahoe,39.7083,-104.7237
Oxnard,Oxnard,CA,California,6111,Ventura,34.1964,-119.1815
Indio,Indio,CA,California,6065,Riverside,33.7346,-116.2346
Scranton,Scranton,PA,Pennsylvania,42069,Lackawanna,41.4044,-75.6649
Victorville,Victorville,CA,California,6071,San Bernardino,34.5277,-117.3536
Trenton,Trenton,NJ,New Jersey,34021,Mercer,40.2237,-74.7641
Modesto,Modesto,CA,California,6099,Stanislaus,37.6375,-121.0028
Huntsville,Huntsville,AL,Alabama,1089,Madison,34.6981,-86.6412
Honolulu,Honolulu,HI,Hawaii,15003,Honolulu,21.3294,-157.846
Greensboro,Greensboro,NC,North Carolina,37081,Guilford,36.0956,-79.8271
Anaheim,Anaheim,CA,California,6059,Orange,33.839,-117.8574
Corpus Christi,Corpus Christi,TX,Texas,48355,Nueces,27.7254,-97.3767
Fort Wayne,Fort Wayne,IN,Indiana,18003,Allen,41.0888,-85.1436
Fort Collins,Fort Collins,CO,Colorado,8069,Larimer,40.5477,-105.0656
Jackson,Jackson,MS,Mississippi,28049,Hinds,32.3157,-90.2125
Myrtle Beach,Myrtle Beach,SC,South Carolina,45051,Horry,33.7094,-78.8844
Fayetteville,Fayetteville,NC,North Carolina,37051,Cumberland,35.085,-78.9772
Antioch,Antioch,CA,California,6013,Contra Costa,37.9787,-121.796
Lansing,Lansing,MI,Michigan,26065,Ingham,42.7142,-84.5601
Lexington,Lexington,KY,Kentucky,21067,Fayette,38.0423,-84.4587
Mobile,Mobile,AL,Alabama,1097,Mobile,30.6782,-88.1162
Youngstown,Youngstown,OH,Ohio,39099,Mahoning,41.0993,-80.6463
Henderson,Henderson,NV,Nevada,32003,Clark,36.0133,-115.0381
Savannah,Savannah,GA,Georgia,13051,Chatham,32.0286,-81.1821
Poughkeepsie,Poughkeepsie,NY,New York,36027,Dutchess,41.695,-73.9211
Santa Ana,Santa Ana,CA,California,6059,Orange,33.7367,-117.8819
Ann Arbor,Ann Arbor,MI,Michigan,26161,Washtenaw,42.2759,-83.731
St. Paul,St. Paul,MN,Minnesota,27123,Ramsey,44.9478,-93.1039
Newark,Newark,NJ,New Jersey,34013,Essex,40.7245,-74.1725
Irvine,Irvine,CA,California,6059,Orange,33.6772,-117.7738
Santa Rosa,Santa Rosa,CA,California,6097,Sonoma,38.4458,-122.7067
Canton,Canton,OH,Ohio,39151,Stark,40.8078,-81.3676
Asheville,Asheville,NC,North Carolina,37021,Buncombe,35.5707,-82.5537
Flint,Flint,MI,Michigan,26049,Genesee,43.0236,-83.6921
Winter Haven,Winter Haven,FL,Florida,12105,Polk,28.0118,-81.7014
Anchorage,Anchorage,AK,Alaska,2020,Anchorage,61.1508,-149.1091
Lincoln,Lincoln,NE,Nebraska,31109,Lancaster,40.8099,-96.6784
Concord,Concord,NC,North Carolina,37025,Cabarrus,35.3933,-80.6369
Jersey City,Jersey City,NJ,New Jersey,34017,Hudson,40.7184,-74.0686
Springfield,Springfield,MO,Missouri,29077,Greene,37.1943,-93.2916
Plano,Plano,TX,Texas,48085,Collin,33.0502,-96.7486
Shreveport,Shreveport,LA,Louisiana,22017,Caddo,32.4653,-93.7955
Davenport,Davenport,IA,Iowa,19163,Scott,41.5565,-90.6053
Lubbock,Lubbock,TX,Texas,48303,Lubbock,33.5657,-101.8879
Lakeland,Lakeland,FL,Florida,12105,Polk,28.0557,-81.9545
South Bend,South Bend,IN,Indiana,18141,St. Joseph,41.6767,-86.2696
Chula Vista,Chula Vista,CA,California,6073,San Diego,32.6281,-117.0144
Chandler,Chandler,AZ,Arizona,4013,Maricopa,33.2825,-111.8514
Rockford,Rockford,IL,Illinois,17201,Winnebago,42.2596,-89.064
Reading,Reading,PA,Pennsylvania,42011,Berks,40.34,-75.9267
Eugene,Eugene,OR,Oregon,41039,Lane,44.0564,-123.1174
Wilmington,Wilmington,NC,North Carolina,37129,New Hanover,34.2099,-77.8866
Santa Clarita,Santa Clarita,CA,California,6037,Los Angeles,34.4175,-118.4964
Gilbert,Gilbert,AZ,Arizona,4013,Maricopa,33.31,-111.7463
Salem,Salem,OR,Oregon,41047,Marion,44.9233,-123.0244
Killeen,Killeen,TX,Texas,48027,Bell,31.0753,-97.7297
Round Lake Beach,Round Lake Beach,IL,Illinois,17097,Lake,42.3791,-88.0811
Columbus,Columbus,GA,Georgia,13215,Muscogee,32.51,-84.8771
North Las Vegas,North Las Vegas,NV,Nevada,32003,Clark,36.2883,-115.0888
Kennewick,Kennewick,WA,Washington,53005,Benton,46.1978,-119.1732
St. Petersburg,St. Petersburg,FL,Florida,12103,Pinellas,27.7931,-82.6652
Tallahassee,Tallahassee,FL,Florida,12073,Leon,30.4551,-84.2527
Laredo,Laredo,TX,Texas,48479,Webb,27.5625,-99.4874
Irving,Irving,TX,Texas,48113,Dallas,32.8583,-96.9702
Peoria,Peoria,IL,Illinois,17143,Peoria,40.752,-89.6154
Montgomery,Montgomery,AL,Alabama,1101,Montgomery,32.3482,-86.2668
Chesapeake,Chesapeake,VA,Virginia,51550,Chesapeake,36.6778,-76.3023
Glendale,Glendale,AZ,Arizona,4013,Maricopa,33.5791,-112.2311
York,York,PA,Pennsylvania,42133,York,39.9651,-76.7315
Nashua,Nashua,NH,New Hampshire,33011,Hillsborough,42.7491,-71.491
Garland,Garland,TX,Texas,48113,Dallas,32.91,-96.6304
Scottsdale,Scottsdale,AZ,Arizona,4013,Maricopa,33.6872,-111.8651
Lafayette,Lafayette,LA,Louisiana,22055,Lafayette,30.2082,-92.0325
Norfolk,Norfolk,VA,Virginia,51710,Norfolk,36.8945,-76.259
Arlington,Arlington,VA,Virginia,51013,Arlington,38.8786,-77.1011
Appleton,Appleton,WI,Wisconsin,55087,Outagamie,44.278,-88.3892
Aguadilla,Aguadilla,PR,Puerto Rico,72005,Aguadilla,18.4382,-67.1537
Rock Hill,Rock Hill,SC,South Carolina,45091,York,34.9415,-81.0241
Fremont,Fremont,CA,California,6001,Alameda,37.5265,-121.9843
Fargo,Fargo,ND,North Dakota,38017,Cass,46.8651,-96.8292
Gulfport,Gulfport,MS,Mississippi,28047,Harrison,30.4274,-89.0704
Bremerton,Bremerton,WA,Washington,53035,Kitsap,47.5436,-122.7121
Green Bay,Green Bay,WI,Wisconsin,55009,Brown,44.5148,-87.9895
Enterprise,Enterprise,NV,Nevada,32003,Clark,36.0091,-115.2278
Hialeah,Hialeah,FL,Florida,12086,Miami-Dade,25.8696,-80.3045
Deltona,Deltona,FL,Florida,12127,Volusia,28.905,-81.2137
San Bernardino,San Bernardino,CA,California,6071,San Bernardino,34.1416,-117.2943
Gainesville,Gainesville,FL,Florida,12001,Alachua,29.6804,-82.3459
Spring Valley,Spring Valley,NV,Nevada,32003,Clark,36.0952,-115.2636
Tacoma,Tacoma,WA,Washington,53053,Pierce,47.2431,-122.4531
Roanoke,Roanoke,VA,Virginia,51770,Roanoke,37.2785,-79.9581
Brownsville,Brownsville,TX,Texas,48061,Cameron,25.9975,-97.458
College Station,College Station,TX,Texas,48041,Brazos,30.5852,-96.2959
Olympia,Olympia,WA,Washington,53067,Thurston,47.0417,-122.8959
Clarksville,Clarksville,TN,Tennessee,47125,Montgomery,36.5692,-87.3413
Yonkers,Yonkers,NY,New York,36119,Westchester,40.9466,-73.8673
Moreno Valley,Moreno Valley,CA,California,6065,Riverside,33.9244,-117.2045
Thousand Oaks,Thousand Oaks,CA,California,6111,Ventura,34.1914,-118.8756
Portland,Portland,ME,Maine,23005,Cumberland,43.6773,-70.2715
Fontana,Fontana,CA,California,6071,San Bernardino,34.0968,-117.4599
Hickory,Hickory,NC,North Carolina,37035,Catawba,35.741,-81.3223
Amarillo,Amarillo,TX,Texas,48375,Potter,35.1984,-101.8316
Sioux Falls,Sioux Falls,SD,South Dakota,46099,Minnehaha,43.5396,-96.7311
Evansville,Evansville,IN,Indiana,18163,Vanderburgh,37.9881,-87.5341
Huntington,Huntington,WV,West Virginia,54011,Cabell,38.4109,-82.4345
Waterbury,Waterbury,CT,Connecticut,9140,Naugatuck Valley,41.5582,-73.0361
Frisco,Frisco,TX,Texas,48085,Collin,33.156,-96.8216
Lorain,Lorain,OH,Ohio,39093,Lorain,41.4409,-82.184
Kalamazoo,Kalamazoo,MI,Michigan,26077,Kalamazoo,42.2749,-85.5882
Galveston,Galveston,TX,Texas,48167,Galveston,29.2484,-94.8913
Spartanburg,Spartanburg,SC,South Carolina,45083,Spartanburg,34.9442,-81.9251
Santa Barbara,Santa Barbara,CA,California,6083,Santa Barbara,34.4285,-119.7202
Sunrise Manor,Sunrise Manor,NV,Nevada,32003,Clark,36.1783,-115.0487
Huntington Beach,Huntington Beach,CA,California,6059,Orange,33.696,-118.0018
Grand Prairie,Grand Prairie,TX,Texas,48113,Dallas,32.6871,-97.0208
Overland Park,Overland Park,KS,Kansas,20091,Johnson,38.887,-94.687
McKinney,McKinney,TX,Texas,48085,Collin,33.2016,-96.667
Waco,Waco,TX,Texas,48309,McLennan,31.5599,-97.1882
Hagerstown,Hagerstown,MD,Maryland,24043,Washington,39.6401,-77.7217
Glendale,Glendale,CA,California,6037,Los Angeles,34.1819,-118.2468
Nampa,Nampa,ID,Idaho,16027,Canyon,43.5844,-116.5638
Peoria,Peoria,AZ,Arizona,4013,Maricopa,33.7843,-112.2989
Cedar Rapids,Cedar Rapids,IA,Iowa,19113,Linn,41.9662,-91.6783
Vancouver,Vancouver,WA,Washington,53011,Clark,45.6366,-122.5967
Paradise,Paradise,NV,Nevada,32003,Clark,36.0872,-115.1355
Ocala,Ocala,FL,Florida,12083,Marion,29.178,-82.1511
Erie,Erie,PA,Pennsylvania,42049,Erie,42.1167,-80.0733
Newport News,Newport News,VA,Virginia,51700,Newport News,37.1051,-76.5185
Frederick,Frederick,MD,Maryland,24021,Frederick,39.4337,-77.4141
Murfreesboro,Murfreesboro,TN,Tennessee,47149,Rutherford,35.849,-86.4121
Fort Lauderdale,Fort Lauderdale,FL,Florida,12011,Broward,26.1412,-80.1464
Aurora,Aurora,IL,Illinois,17089,Kane,41.7638,-88.2902
Tempe,Tempe,AZ,Arizona,4013,Maricopa,33.3881,-111.9319
Danbury,Danbury,CT,Connecticut,9190,Western Connecticut,41.4015,-73.4709
Spring Hill,Spring Hill,FL,Florida,12053,Hernando,28.4798,-82.53
Gastonia,Gastonia,NC,North Carolina,37071,Gaston,35.2494,-81.1854
Salinas,Salinas,CA,California,6053,Monterey,36.6883,-121.6317
Fredericksburg,Fredericksburg,VA,Virginia,51630,Fredericksburg,38.2992,-77.4872
Ontario,Ontario,CA,California,6071,San Bernardino,34.0393,-117.6064
Elk Grove,Elk Grove,CA,California,6067,Sacramento,38.4161,-121.3842
Gainesville,Gainesville,GA,Georgia,13139,Hall,34.2902,-83.8294
Cary,Cary,NC,North Carolina,37183,Wake,35.7819,-78.8195
Rancho Cucamonga,Rancho Cucamonga,CA,California,6071,San Bernardino,34.1247,-117.5667
Oceanside,Oceanside,CA,California,6073,San Diego,33.2247,-117.3083
Garden Grove,Garden Grove,CA,California,6059,Orange,33.7787,-117.9601
Lancaster,Lancaster,CA,California,6037,Los Angeles,34.6935,-118.1753
Hemet,Hemet,CA,California,6065,Riverside,33.7341,-116.9969
Pembroke Pines,Pembroke Pines,FL,Florida,12011,Broward,26.0128,-80.3382
Panama City,Panama City,FL,Florida,12005,Bay,30.1995,-85.6003
Vallejo,Vallejo,CA,California,6095,Solano,38.1125,-122.2342
Manchester,Manchester,NH,New Hampshire,33011,Hillsborough,42.9848,-71.4447
Medford,Medford,OR,Oregon,41029,Jackson,42.3372,-122.854
Bayamón,Bayamon,PR,Puerto Rico,72021,Bayamón,18.3794,-66.1635
Mauldin,Mauldin,SC,South Carolina,45045,Greenville,34.7821,-82.3032
Santa Cruz,Santa Cruz,CA,California,6087,Santa Cruz,36.9789,-122.0346
Palmdale,Palmdale,CA,California,6037,Los Angeles,34.5944,-118.1057
Norwich,Norwich,CT,Connecticut,9180,Southeastern Connecticut,41.5495,-72.0882
Muskegon,Muskegon,MI,Michigan,26121,Muskegon,43.2281,-86.2562
Leesburg,Leesburg,FL,Florida,12069,Lake,28.7672,-81.8962
High Point,High Point,NC,North Carolina,37081,Guilford,35.991,-79.9937
Tuscaloosa,Tuscaloosa,AL,Alabama,1125,Tuscaloosa,33.2348,-87.5268
Visalia,Visalia,CA,California,6107,Tulare,36.3276,-119.3269
Marysville,Marysville,WA,Washington,53061,Snohomish,48.0809,-122.1561
Merced,Merced,CA,California,6047,Merced,37.3057,-120.4779
Hayward,Hayward,CA,California,6001,Alameda,37.6328,-122.0766
Lafayette,Lafayette,IN,Indiana,18157,Tippecanoe,40.3991,-86.8593
Springfield,Springfield,IL,Illinois,17167,Sangamon,39.7709,-89.654
Corona,Corona,CA,California,6065,Riverside,33.8616,-117.5649
Paterson,Paterson,NJ,New Jersey,34031,Passaic,40.9147,-74.1624
Alexandria,Alexandria,VA,Virginia,51510,Alexandria,38.8185,-77.0861
Macon,Macon,GA,Georgia,13021,Bibb,32.8065,-83.6974
Binghamton,Binghamton,NY,New York,36007,Broome,42.1014,-75.9093
Lakewood,Lakewood,CO,Colorado,8059,Jefferson,39.6977,-105.1172
Kansas City,Kansas City,KS,Kansas,20209,Wyandotte,39.1235,-94.7443
Odessa,Odessa,TX,Texas,48135,Ector,31.8801,-102.3448
Sunnyvale,Sunnyvale,CA,California,6085,Santa Clara,37.3836,-122.0255
New Bedford,New Bedford,MA,Massachusetts,25005,Bristol,41.6697,-70.9428
Hollywood,Hollywood,FL,Florida,12011,Broward,26.0293,-80.1679
South Lyon,South Lyon,MI,Michigan,26125,Oakland,42.4614,-83.6526
Escondido,Escondido,CA,California,6073,San Diego,33.1348,-117.0723
Lake Charles,Lake Charles,LA,Louisiana,22019,Calcasieu,30.201,-93.2111
Pasadena,Pasadena,TX,Texas,48201,Harris,29.6575,-95.1498
Bellevue,Bellevue,WA,Washington,53033,King,47.5951,-122.1535
Joliet,Joliet,IL,Illinois,17197,Will,41.5188,-88.1499
Champaign,Champaign,IL,Illinois,17019,Champaign,40.1142,-88.2737
Pomona,Pomona,CA,California,6037,Los Angeles,34.0585,-117.7626
Fairfield,Fairfield,CA,California,6095,Solano,38.2583,-122.0335
Mesquite,Mesquite,TX,Texas,48113,Dallas,32.7602,-96.5865
Elkhart,Elkhart,IN,Indiana,18039,Elkhart,41.6916,-85.9627
Naperville,Naperville,IL,Illinois,17043,DuPage,41.748,-88.1659
St. George,St. George,UT,Utah,49053,Washington,37.0758,-113.5752
Roseville,Roseville,CA,California,6061,Placer,38.7703,-121.3196
Topeka,Topeka,KS,Kansas,20177,Shawnee,39.0346,-95.6955
Burlington,Burlington,NC,North Carolina,37001,Alamance,36.076,-79.4685
Warner Robins,Warner Robins,GA,Georgia,13153,Houston,32.5961,-83.6527
Surprise,Surprise,AZ,Arizona,4013,Maricopa,33.6815,-112.4515
Torrance,Torrance,CA,California,6037,Los Angeles,33.8346,-118.3416
Santa Maria,Santa Maria,CA,California,6083,Santa Barbara,34.9333,-120.4431
Athens,Athens,GA,Georgia,13059,Clarke,33.9508,-83.3689
Houma,Houma,LA,Louisiana,22109,Terrebonne,29.58,-90.7059
Columbia,Columbia,MO,Missouri,29019,Boone,38.9472,-92.3268
Fullerton,Fullerton,CA,California,6059,Orange,33.8841,-117.9279
Olathe,Olathe,KS,Kansas,20091,Johnson,38.8833,-94.82
Thornton,Thornton,CO,Colorado,8001,Adams,39.9197,-104.9438
Greeley,Greeley,CO,Colorado,8123,Weld,40.4152,-104.7706
Beaumont,Beaumont,TX,Texas,48245,Jefferson,30.0849,-94.1451
Las Cruces,Las Cruces,NM,New Mexico,35013,Doña Ana,32.3265,-106.7893
Midland,Midland,TX,Texas,48329,Midland,32.0243,-102.1147
Metairie,Metairie,LA,Louisiana,22051,Jefferson,29.9977,-90.178
Carolina,Carolina,PR,Puerto Rico,72031,Carolina,18.4054,-65.9792
West Valley City,West Valley City,UT,Utah,49035,Salt Lake,40.6886,-112.0123
Orange,Orange,CA,California,6059,Orange,33.8038,-117.8218
Warren,Warren,MI,Michigan,26099,Macomb,42.4934,-83.027
Grand Junction,Grand Junction,CO,Colorado,8077,Mesa,39.0877,-108.5673
Tyler,Tyler,TX,Texas,48423,Smith,32.3184,-95.3062
Pasadena,Pasadena,CA,California,6037,Los Angeles,34.1597,-118.139
Hampton,Hampton,VA,Virginia,51650,Hampton,37.0551,-76.363
Bloomington,Bloomington,IL,Illinois,17113,McLean,40.4757,-88.9703
Elizabeth,Elizabeth,NJ,New Jersey,34039,Union,40.6658,-74.1913
Stamford,Stamford,CT,Connecticut,9190,Western Connecticut,41.1039,-73.5585
Yuma,Yuma,AZ,Arizona,4027,Yuma,32.5995,-114.5491
Kent,Kent,WA,Washington,53033,King,47.3887,-122.2128
Miramar,Miramar,FL,Florida,12011,Broward,25.9773,-80.3351
Coeur d'Alene,Coeur d'Alene,ID,Idaho,16055,Kootenai,47.704,-116.7936
Coral Springs,Coral Springs,FL,Florida,12011,Broward,26.2702,-80.2591
Sterling Heights,Sterling Heights,MI,Michigan,26099,Macomb,42.5809,-83.0305
Yuba City,Yuba City,CA,California,6101,Sutter,39.1357,-121.6383
Yakima,Yakima,WA,Washington,53077,Yakima,46.5923,-120.5496
Carrollton,Carrollton,TX,Texas,48113,Dallas,32.989,-96.8999
Racine,Racine,WI,Wisconsin,55101,Racine,42.7274,-87.8135
Johnson City,Johnson City,TN,Tennessee,47179,Washington,36.3406,-82.3806
Billings,Billings,MT,Montana,30111,Yellowstone,45.7891,-108.5526
Iowa City,Iowa City,IA,Iowa,19103,Johnson,41.6559,-91.5303
Dover,Dover,DE,Delaware,10001,Kent,39.161,-75.5202
Bellingham,Bellingham,WA,Washington,53073,Whatcom,48.7548,-122.469
Charleston,Charleston,WV,West Virginia,54039,Kanawha,38.3484,-81.6322
Lynchburg,Lynchburg,VA,Virginia,51680,Lynchburg,37.4003,-79.1909
Santa Clara,Santa Clara,CA,California,6085,Santa Clara,37.3646,-121.968
Norman,Norman,OK,Oklahoma,40027,Cleveland,35.2335,-97.3471
Greenville,Greenville,NC,North Carolina,37147,Pitt,35.5943,-77.376
Simi Valley,Simi Valley,CA,California,6111,Ventura,34.2663,-118.749
Fort Smith,Fort Smith,AR,Arkansas,5131,Sebastian,35.3495,-94.3695
Abilene,Abilene,TX,Texas,48441,Taylor,32.4543,-99.7384
Arecibo,Arecibo,PR,Puerto Rico,72013,Arecibo,18.4491,-66.7387
Lewisville,Lewisville,TX,Texas,48121,Denton,33.0454,-96.9815
Pearland,Pearland,TX,Texas,48039,Brazoria,29.5581,-95.3218
Lehigh Acres,Lehigh Acres,FL,Florida,12071,Lee,26.612,-81.6388
Kenosha,Kenosha,WI,Wisconsin,55059,Kenosha,42.5865,-87.8773
Seaside,Seaside,CA,California,6053,Monterey,36.6224,-121.8199
Burlington,Burlington,VT,Vermont,50007,Chittenden,44.4876,-73.2316
Arvada,Arvada,CO,Colorado,8059,Jefferson,39.832,-105.151
Waldorf,Waldorf,MD,Maryland,24017,Charles,38.6085,-76.9194
Independence,Independence,MO,Missouri,29095,Jackson,39.0871,-94.3501
Rochester,Rochester,MN,Minnesota,27109,Olmsted,44.0154,-92.478
Logan,Logan,UT,Utah,49005,Cache,41.7399,-111.8422
Harlingen,Harlingen,TX,Texas,48061,Cameron,26.1916,-97.6977
Berkeley,Berkeley,CA,California,6001,Alameda,37.8722,-122.276
Clovis,Clovis,CA,California,6019,Fresno,36.8278,-119.683
Round Rock,Round Rock,TX,Texas,48491,Williamson,30.527,-97.6642
Pueblo,Pueblo,CO,Colorado,8101,Pueblo,38.2701,-104.6114
Temple,Temple,TX,Texas,48027,Bell,31.1068,-97.3891
Meridian,Meridian,ID,Idaho,16001,Ada,43.6116,-116.3977
Duluth,Duluth,MN,Minnesota,27137,St. Louis,46.7756,-92.1393
The Woodlands,The Woodlands,TX,Texas,48339,Montgomery,30.1738,-95.5134
Boulder,Boulder,CO,Colorado,8013,Boulder,40.0248,-105.2524
Richardson,Richardson,TX,Texas,48113,Dallas,32.9716,-96.7093
Cambridge,Cambridge,MA,Massachusetts,25017,Middlesex,42.3759,-71.1185
West Palm Beach,West Palm Beach,FL,Florida,12099,Palm Beach,26.7469,-80.132
Port Arthur,Port Arthur,TX,Texas,48245,Jefferson,29.8554,-93.9264
East Los Angeles,East Los Angeles,CA,California,6037,Los Angeles,34.0326,-118.1691
Redding,Redding,CA,California,6089,Shasta,40.5698,-122.365
Clearwater,Clearwater,FL,Florida,12103,Pinellas,27.979,-82.7623
Monroe,Monroe,LA,Louisiana,22073,Ouachita,32.5185,-92.0774
Utica,Utica,NY,New York,36065,Oneida,43.0962,-75.2261
St. Cloud,St. Cloud,MN,Minnesota,27145,Stearns,45.534,-94.1718
Mandeville,Mandeville,LA,Louisiana,22103,St. Tammany,30.3751,-90.0904
West Jordan,West Jordan,UT,Utah,49035,Salt Lake,40.6024,-112.0008
North Charleston,North Charleston,SC,South Carolina,45019,Charleston,32.9067,-80.0722
Richmond,Richmond,CA,California,6013,Contra Costa,37.9477,-122.3389
Westminster,Westminster,CO,Colorado,8001,Adams,39.8837,-105.0624
Saginaw,Saginaw,MI,Michigan,26145,Saginaw,43.4199,-83.9501
Kailua,Kailua,HI,Hawaii,15003,Honolulu,21.392,-157.7396
Brandon,Brandon,FL,Florida,12057,Hillsborough,27.9367,-82.3
Ponce,Ponce,PR,Puerto Rico,72113,Ponce,18.0127,-66.6212
Carlsbad,Carlsbad,CA,California,6073,San Diego,33.1246,-117.2834
Lowell,Lowell,MA,Massachusetts,25017,Middlesex,42.6389,-71.3217
Broken Arrow,Broken Arrow,OK,Oklahoma,40143,Tulsa,36.038,-95.7806
Elgin,Elgin,IL,Illinois,17089,Kane,42.0383,-88.324
Gresham,Gresham,OR,Oregon,41051,Multnomah,45.5021,-122.4413
League City,League City,TX,Texas,48167,Galveston,29.4874,-95.1087
Downey,Downey,CA,California,6037,Los Angeles,33.9379,-118.1311
Waterloo,Waterloo,IA,Iowa,19013,Black Hawk,42.4918,-92.3522
Murrieta,Murrieta,CA,California,6065,Riverside,33.5719,-117.1909
Leominster,Leominster,MA,Massachusetts,25027,Worcester,42.5209,-71.7717
Longview,Longview,TX,Texas,48183,Gregg,32.5193,-94.7622
Jacksonville,Jacksonville,NC,North Carolina,37133,Onslow,34.7289,-77.3941
Pompano Beach,Pompano Beach,FL,Florida,12011,Broward,26.2428,-80.1312
Bend,Bend,OR,Oregon,41017,Deschutes,44.0563,-121.3095
Miami Gardens,Miami Gardens,FL,Florida,12086,Miami-Dade,25.9433,-80.2426
Costa Mesa,Costa Mesa,CA,California,6059,Orange,33.6667,-117.9135
Sioux City,Sioux City,IA,Iowa,19193,Woodbury,42.4959,-96.3901
Everett,Everett,WA,Washington,53061,Snohomish,47.9525,-122.1669
Gilroy,Gilroy,CA,California,6085,Santa Clara,37.0046,-121.5854
San Buenaventura,San Buenaventura,CA,California,6111,Ventura,34.2741,-119.2314
Temecula,Temecula,CA,California,6065,Riverside,33.4928,-117.1315
Sugar Land,Sugar Land,TX,Texas,48157,Fort Bend,29.5935,-95.6358
Chico,Chico,CA,California,6007,Butte,39.7578,-121.8161
Eau Claire,Eau Claire,WI,Wisconsin,55035,Eau Claire,44.8197,-91.4948
El Monte,El Monte,CA,California,6037,Los Angeles,34.0739,-118.0291
Idaho Falls,Idaho Falls,ID,Idaho,16019,Bonneville,43.4871,-112.0362
Dearborn,Dearborn,MI,Michigan,26163,Wayne,42.3127,-83.213
Bloomington,Bloomington,IN,Indiana,18105,Monroe,39.1637,-86.5257
West Covina,West Covina,CA,California,6037,Los Angeles,34.0555,-117.9113
Sparks,Sparks,NV,Nevada,32031,Washoe,39.5736,-119.7161
South Fulton,South Fulton,GA,Georgia,13121,Fulton,33.6273,-84.58
Centennial,Centennial,CO,Colorado,8005,Arapahoe,39.5926,-104.8673
Sandy Springs,Sandy Springs,GA,Georgia,13121,Fulton,33.9366,-84.3703
Inglewood,Inglewood,CA,California,6037,Los Angeles,33.9566,-118.3444
Hillsboro,Hillsboro,OR,Oregon,41067,Washington,45.5273,-122.936
Columbia,Columbia,MD,Maryland,24027,Howard,39.2004,-76.859
Burbank,Burbank,CA,California,6037,Los Angeles,34.1879,-118.3235
Davie,Davie,FL,Florida,12011,Broward,26.0789,-80.287
El Cajon,El Cajon,CA,California,6073,San Diego,32.8017,-116.9604
Jurupa Valley,Jurupa Valley,CA,California,6065,Riverside,34.001,-117.4706
Allen,Allen,TX,Texas,48085,Collin,33.1088,-96.6735
Auburn,Auburn,AL,Alabama,1081,Lee,32.6087,-85.4903
Renton,Renton,WA,Washington,53033,King,47.4784,-122.1918
Holland,Holland,MI,Michigan,26139,Ottawa,42.7677,-86.0984
Brockton,Brockton,MA,Massachusetts,25023,Plymouth,42.0821,-71.0242
Rio Rancho,Rio Rancho,NM,New Mexico,35043,Sandoval,35.2873,-106.6982
San Mateo,San Mateo,CA,California,6081,San Mateo,37.5522,-122.3121
Rialto,Rialto,CA,California,6071,San Bernardino,34.1175,-117.3892
Spokane Valley,Spokane Valley,WA,Washington,53063,Spokane,47.6626,-117.2346
Charlottesville,Charlottesville,VA,Virginia,51540,Charlottesville,38.0375,-78.4855
Menifee,Menifee,CA,California,6065,Riverside,33.6909,-117.1849
Daly City,Daly City,CA,California,6081,San Mateo,37.6862,-122.4685
Wichita Falls,Wichita Falls,TX,Texas,48485,Wichita,33.9072,-98.5291
Riverview,Riverview,FL,Florida,12057,Hillsborough,27.8227,-82.3023
Norwalk,Norwalk,CA,California,6037,Los Angeles,33.9069,-118.0829
Lee's Summit,Lee's Summit,MO,Missouri,29095,Jackson,38.9171,-94.3816
Longmont,Longmont,CO,Colorado,8013,Boulder,40.1686,-105.1005
Vacaville,Vacaville,CA,California,6095,Solano,38.3587,-121.9673
Highlands Ranch,Highlands Ranch,CO,Colorado,8035,Douglas,39.5419,-104.9708
Kingsport,Kingsport,TN,Tennessee,47163,Sullivan,36.5224,-82.5454
San Tan Valley,San Tan Valley,AZ,Arizona,4021,Pinal,33.1786,-111.5629
Quincy,Quincy,MA,Massachusetts,25021,Norfolk,42.2506,-71.0187
Edinburg,Edinburg,TX,Texas,48215,Hidalgo,26.3196,-98.1597
Lynn,Lynn,MA,Massachusetts,25009,Essex,42.4781,-70.9664
San Angelo,San Angelo,TX,Texas,48451,Tom Green,31.4424,-100.4504
Hesperia,Hesperia,CA,California,6071,San Bernardino,34.3975,-117.3147
Bowling Green,Bowling Green,KY,Kentucky,21227,Warren,36.9716,-86.4378
Federal Way,Federal Way,WA,Washington,53033,King,47.3091,-122.3358
Carmel,Carmel,IN,Indiana,18057,Hamilton,39.965,-86.146
Bismarck,Bismarck,ND,North Dakota,38015,Burleigh,46.8143,-100.7694
Fishers,Fishers,IN,Indiana,18057,Hamilton,39.9588,-85.9659
Lafayette,Lafayette,CO,Colorado,8013,Boulder,39.9946,-105.0998
Vista,Vista,CA,California,6073,San Diego,33.1896,-117.2386
Boca Raton,Boca Raton,FL,Florida,12099,Palm Beach,26.3752,-80.108
St. Augustine,St. Augustine,FL,Florida,12109,St. Johns,29.8976,-81.31
Beaverton,Beaverton,OR,Oregon,41067,Washington,45.4779,-122.8168
Goodyear,Goodyear,AZ,Arizona,4013,Maricopa,33.2614,-112.3622
Portsmouth,Portsmouth,VA,Virginia,51740,Portsmouth,36.8468,-76.354
Orem,Orem,UT,Utah,49049,Utah,40.2981,-111.6994
Sunrise,Sunrise,FL,Florida,12011,Broward,26.1547,-80.2997
Portsmouth,Portsmouth,NH,New Hampshire,33015,Rockingham,43.058,-70.7826
Arden-Arcade,Arden-Arcade,CA,California,6067,Sacramento,38.6017,-121.3845
Lawrence,Lawrence,KS,Kansas,20045,Douglas,38.9597,-95.2642
Sandy,Sandy,UT,Utah,49035,Salt Lake,40.5709,-111.8506
Slidell,Slidell,LA,Louisiana,22103,St. Tammany,30.2887,-89.7828
Buckeye,Buckeye,AZ,Arizona,4013,Maricopa,33.4314,-112.6429
Livonia,Livonia,MI,Michigan,26163,Wayne,42.3972,-83.3733
Williamsburg,Williamsburg,VA,Virginia,51830,Williamsburg,37.2693,-76.7076
Suffolk,Suffolk,VA,Virginia,51800,Suffolk,36.6953,-76.6398
Compton,Compton,CA,California,6037,Los Angeles,33.893,-118.2274
La Crosse,La Crosse,WI,Wisconsin,55063,La Crosse,43.8241,-91.2268
Edmond,Edmond,OK,Oklahoma,40109,Oklahoma,35.6689,-97.416
Carson,Carson,CA,California,6037,Los Angeles,33.8374,-118.2559
San Marcos,San Marcos,CA,California,6073,San Diego,33.135,-117.1743
Tracy,Tracy,CA,California,6077,San Joaquin,37.7269,-121.4523
Prescott Valley,Prescott Valley,AZ,Arizona,4025,Yavapai,34.598,-112.3185
Middletown,Middletown,OH,Ohio,39017,Butler,39.5033,-84.3659
Fall River,Fall River,MA,Massachusetts,25005,Bristol,41.7136,-71.1015
San Germán,San German,PR,Puerto Rico,72125,San Germán,18.0827,-67.046
Santa Fe,Santa Fe,NM,New Mexico,35049,Santa Fe,35.6619,-105.9819
Plantation,Plantation,FL,Florida,12011,Broward,26.1259,-80.2617
Mayagüez,Mayaguez,PR,Puerto Rico,72097,Mayagüez,18.2003,-67.1397
New Braunfels,New Braunfels,TX,Texas,48091,Comal,29.6994,-98.1148
Roswell,Roswell,GA,Georgia,13121,Fulton,34.0391,-84.3513
Conroe,Conroe,TX,Texas,48339,Montgomery,30.3238,-95.4824
South Gate,South Gate,CA,California,6037,Los Angeles,33.9447,-118.1926
Santa Monica,Santa Monica,CA,California,6037,Los Angeles,34.0235,-118.481
Kirkland,Kirkland,WA,Washington,53033,King,47.697,-122.2057
Hoover,Hoover,AL,Alabama,1073,Jefferson,33.3763,-86.8068
O'Fallon,O'Fallon,MO,Missouri,29183,St. Charles,38.785,-90.7175
Alafaya,Alafaya,FL,Florida,12095,Orange,28.528,-81.1868
Palm Coast,Palm Coast,FL,Florida,12035,Flagler,29.5389,-81.2457
Norwalk,Norwalk,CT,Connecticut,9190,Western Connecticut,41.1144,-73.4215
Lawton,Lawton,OK,Oklahoma,40031,Comanche,34.6175,-98.4202
Chino,Chino,CA,California,6071,San Bernardino,33.9836,-117.6654
Mount Pleasant,Mount Pleasant,SC,South Carolina,45019,Charleston,32.8537,-79.8203
Manteca,Manteca,CA,California,6077,San Joaquin,37.7927,-121.2264
Westminster,Westminster,CA,California,6059,Orange,33.7523,-117.9938
Florence,Florence,SC,South Carolina,45041,Florence,34.178,-79.7898
Joplin,Joplin,MO,Missouri,29097,Jasper,37.0757,-94.5018
Germantown,Germantown,MD,Maryland,24031,Montgomery,39.1755,-77.2643
San Leandro,San Leandro,CA,California,6001,Alameda,37.7074,-122.1599
Town 'n' Country,Town 'n' Country,FL,Florida,12057,Hillsborough,28.0106,-82.5763
Clifton,Clifton,NJ,New Jersey,34031,Passaic,40.863,-74.1575
Waukegan,Waukegan,IL,Illinois,17097,Lake,42.3698,-87.8716
Bloomington,Bloomington,MN,Minnesota,27053,Hennepin,44.8306,-93.3151
Avondale,Avondale,AZ,Arizona,4013,Maricopa,33.3873,-112.3235
Atascocita,Atascocita,TX,Texas,48201,Harris,29.9777,-95.1953
Missoula,Missoula,MT,Montana,30063,Missoula,46.8751,-114.0214
Fort Myers,Fort Myers,FL,Florida,12071,Lee,26.6194,-81.8302
Newton,Newton,MA,Massachusetts,25017,Middlesex,42.3316,-71.2085
Lawrence,Lawrence,MA,Massachusetts,25009,Essex,42.7002,-71.1626
Muncie,Muncie,IN,Indiana,18035,Delaware,40.1989,-85.395
Rapid City,Rapid City,SD,South Dakota,46103,Pennington,44.0716,-103.2204
Troy,Troy,MI,Michigan,26125,Oakland,42.5817,-83.1457
Livermore,Livermore,CA,California,6001,Alameda,37.6868,-121.7607
Citrus Heights,Citrus Heights,CA,California,6067,Sacramento,38.6948,-121.288
Hawthorne,Hawthorne,CA,California,6037,Los Angeles,33.9147,-118.3476
Winchester,Winchester,VA,Virginia,51840,Winchester,39.1735,-78.1746
Springdale,Springdale,AR,Arkansas,5143,Washington,36.1901,-94.1574
Whittier,Whittier,CA,California,6037,Los Angeles,33.9678,-118.0188
Deerfield Beach,Deerfield Beach,FL,Florida,12011,Broward,26.305,-80.1277
Decatur,Decatur,IL,Illinois,17115,Macon,39.8557,-88.9342
San Ramon,San Ramon,CA,California,6013,Contra Costa,37.7624,-121.9365
Vineland,Vineland,NJ,New Jersey,34011,Cumberland,39.4653,-74.9981
Mission,Mission,TX,Texas,48215,Hidalgo,26.2039,-98.3256
Auburn,Auburn,WA,Washington,53033,King,47.3039,-122.2108
Lake Forest,Lake Forest,CA,California,6059,Orange,33.6605,-117.6714
Newport Beach,Newport Beach,CA,California,6059,Orange,33.6151,-117.8668
Melbourne,Melbourne,FL,Florida,12009,Brevard,28.1086,-80.6627
Brooklyn Park,Brooklyn Park,MN,Minnesota,27053,Hennepin,45.1112,-93.3505
Bryan,Bryan,TX,Texas,48041,Brazos,30.665,-96.3807
Westland,Westland,MI,Michigan,26163,Wayne,42.3192,-83.3805
Napa,Napa,CA,California,6055,Napa,38.2975,-122.301
Baytown,Baytown,TX,Texas,48201,Harris,29.7587,-94.9671
Cicero,Cicero,IL,Illinois,17031,Cook,41.8445,-87.7593
Anderson,Anderson,IN,Indiana,18095,Madison,40.0891,-85.6892
Franklin,Franklin,TN,Tennessee,47187,Williamson,35.92,-86.8516
Farmington Hills,Farmington Hills,MI,Michigan,26125,Oakland,42.486,-83.3771
Buena Park,Buena Park,CA,California,6059,Orange,33.8572,-118.0046
Albany,Albany,GA,Georgia,13095,Dougherty,31.5776,-84.1762
Pine Hills,Pine Hills,FL,Florida,12095,Orange,28.5818,-81.4692
State College,State College,PA,Pennsylvania,42027,Centre,40.7909,-77.8567
Redwood City,Redwood City,CA,California,6081,San Mateo,37.5025,-122.2253
Warwick,Warwick,RI,Rhode Island,44003,Kent,41.7062,-71.4334
Jackson,Jackson,MI,Michigan,26075,Jackson,42.2431,-84.4038
Cranston,Cranston,RI,Rhode Island,44007,Providence,41.7658,-71.4858
Largo,Largo,FL,Florida,12103,Pinellas,27.9088,-82.7712
Miami Beach,Miami Beach,FL,Florida,12086,Miami-Dade,25.8171,-80.1396
Alhambra,Alhambra,CA,California,6037,Los Angeles,34.084,-118.1355
Johns Creek,Johns Creek,GA,Georgia,13121,Fulton,34.0333,-84.2027
Mountain View,Mountain View,CA,California,6085,Santa Clara,37.4001,-122.0796
Salisbury,Salisbury,MD,Maryland,24045,Wicomico,38.3756,-75.5865
Morgantown,Morgantown,WV,West Virginia,54061,Monongalia,39.6383,-79.9464
Silver Spring,Silver Spring,MD,Maryland,24031,Montgomery,39.0028,-77.0207
Layton,Layton,UT,Utah,49011,Davis,41.077,-111.962
Springfield,Springfield,OH,Ohio,39023,Clark,39.93,-83.7959
Lakewood,Lakewood,CA,California,6037,Los Angeles,33.8471,-118.1222
Florence,Florence,AL,Alabama,1077,Lauderdale,34.8303,-87.6655
Folsom,Folsom,CA,California,6067,Sacramento,38.6668,-121.1422
Madera,Madera,CA,California,6039,Madera,36.963,-120.0778
New Rochelle,New Rochelle,NY,New York,36119,Westchester,40.9304,-73.7836
Parma,Parma,OH,Ohio,39035,Cuyahoga,41.3843,-81.7286
Terre Haute,Terre Haute,IN,Indiana,18167,Vigo,39.466,-87.3751
Somerville,Somerville,MA,Massachusetts,25017,Middlesex,42.3908,-71.1014
Flagstaff,Flagstaff,AZ,Arizona,4005,Coconino,35.1872,-111.6194
Boynton Beach,Boynton Beach,FL,Florida,12099,Palm Beach,26.5281,-80.0811
Homestead,Homestead,FL,Florida,12086,Miami-Dade,25.4665,-80.4472
Newark,Newark,OH,Ohio,39089,Licking,40.0706,-82.425
Plymouth,Plymouth,MN,Minnesota,27053,Hennepin,45.0225,-93.4617
Anniston,Anniston,AL,Alabama,1015,Calhoun,33.6712,-85.8135
Texarkana,Texarkana,TX,Texas,48037,Bowie,33.45,-94.0847
Tustin,Tustin,CA,California,6059,Orange,33.7311,-117.8107
Pharr,Pharr,TX,Texas,48215,Hidalgo,26.1685,-98.1904
Port Huron,Port Huron,MI,Michigan,26147,St. Clair,42.9821,-82.4388
Turlock,Turlock,CA,California,6099,Stanislaus,37.5053,-120.8588
Rancho Cordova,Rancho Cordova,CA,California,6067,Sacramento,38.5737,-121.2527
The Villages,The Villages,FL,Florida,12119,Sumter,28.9034,-81.9887
Milpitas,Milpitas,CA,California,6085,Santa Clara,37.4336,-121.8921
Perris,Perris,CA,California,6065,Riverside,33.7898,-117.2233
Upland,Upland,CA,California,6071,San Bernardino,34.1178,-117.6604
Alton,Alton,IL,Illinois,17119,Madison,38.9037,-90.152
Pleasanton,Pleasanton,CA,California,6001,Alameda,37.6663,-121.8805
Kendall,Kendall,FL,Florida,12086,Miami-Dade,25.6697,-80.3556
Jonesboro,Jonesboro,AR,Arkansas,5031,Craighead,35.8212,-90.6791
Bellflower,Bellflower,CA,California,6037,Los Angeles,33.888,-118.1271
Battle Creek,Battle Creek,MI,Michigan,26025,Calhoun,42.2985,-85.2296
Chino Hills,Chino Hills,CA,California,6071,San Bernardino,33.9508,-117.7254
Cheyenne,Cheyenne,WY,Wyoming,56021,Laramie,41.135,-104.7902
Lebanon,Lebanon,PA,Pennsylvania,42075,Lebanon,40.3412,-76.4228
Carmichael,Carmichael,CA,California,6067,Sacramento,38.6318,-121.3263
South Jordan,South Jordan,UT,Utah,49035,Salt Lake,40.557,-111.9784
Davis,Davis,CA,California,6113,Yolo,38.5553,-121.737
Elizabethtown,Elizabethtown,KY,Kentucky,21093,Hardin,37.7031,-85.8773
Schaumburg,Schaumburg,IL,Illinois,17031,Cook,42.0308,-88.0838
Alameda,Alameda,CA,California,6001,Alameda,37.7668,-122.267
Hammond,Hammond,IN,Indiana,18089,Lake,41.6168,-87.4909
Pasco,Pasco,WA,Washington,53021,Franklin,46.2506,-119.1305
Evanston,Evanston,IL,Illinois,17031,Cook,42.0464,-87.6943
Lehi,Lehi,UT,Utah,49049,Utah,40.4136,-111.8725
Alexandria,Alexandria,LA,Louisiana,22079,Rapides,31.2923,-92.4702
North Port,North Port,FL,Florida,12115,Sarasota,27.0576,-82.1977
Arlington Heights,Arlington Heights,IL,Illinois,17031,Cook,42.0955,-87.9826
Camarillo,Camarillo,CA,California,6111,Ventura,34.223,-119.0321
Wyoming,Wyoming,MI,Michigan,26081,Kent,42.8908,-85.7066
Flower Mound,Flower Mound,TX,Texas,48121,Denton,33.0343,-97.1146
Bethlehem,Bethlehem,PA,Pennsylvania,42095,Northampton,40.6266,-75.3679
Hattiesburg,Hattiesburg,MS,Mississippi,28035,Forrest,31.3074,-89.317
Loveland,Loveland,CO,Colorado,8069,Larimer,40.4166,-105.0623
Pittsburg,Pittsburg,CA,California,6013,Contra Costa,38.0182,-121.8965
Cedar Park,Cedar Park,TX,Texas,48491,Williamson,30.5105,-97.8197
Wenatchee,Wenatchee,WA,Washington,53007,Chelan,47.436,-120.3295
Southfield,Southfield,MI,Michigan,26125,Oakland,42.4765,-83.2605
Rochester Hills,Rochester Hills,MI,Michigan,26125,Oakland,42.6645,-83.1563
Hammond,Hammond,LA,Louisiana,22105,Tangipahoa,30.5061,-90.4563
Valdosta,Valdosta,GA,Georgia,13185,Lowndes,30.8502,-83.2788
Owensboro,Owensboro,KY,Kentucky,21059,Daviess,37.7575,-87.1172
Apple Valley,Apple Valley,CA,California,6071,San Bernardino,34.5352,-117.2109
Woodbury,Woodbury,MN,Minnesota,27163,Washington,44.9057,-92.923
Pawtucket,Pawtucket,RI,Rhode Island,44007,Providence,41.8744,-71.3743
St. Joseph,St. Joseph,MO,Missouri,29021,Buchanan,39.7598,-94.821
Doral,Doral,FL,Florida,12086,Miami-Dade,25.8152,-80.3565
Dover,Dover,NH,New Hampshire,33017,Strafford,43.1887,-70.8845
Missouri City,Missouri City,TX,Texas,48157,Fort Bend,29.563,-95.5365
Saratoga Springs,Saratoga Springs,NY,New York,36091,Saratoga,43.0674,-73.7775
Pocatello,Pocatello,ID,Idaho,16005,Bannock,42.8724,-112.4647
Oshkosh,Oshkosh,WI,Wisconsin,55139,Winnebago,44.0227,-88.5619
New Britain,New Britain,CT,Connecticut,9110,Capitol,41.6759,-72.7862
Castle Rock,Castle Rock,CO,Colorado,8035,Douglas,39.3763,-104.8535
Lauderhill,Lauderhill,FL,Florida,12011,Broward,26.1605,-80.2241
Broomfield,Broomfield,CO,Colorado,8014,Broomfield,39.9542,-105.0526
Dale City,Dale City,VA,Virginia,51153,Prince William,38.6473,-77.3459
Bolingbrook,Bolingbrook,IL,Illinois,17197,Will,41.6901,-88.1021
Redmond,Redmond,WA,Washington,53033,King,47.6763,-122.1169
Caguas,Caguas,PR,Puerto Rico,72025,Caguas,18.2319,-66.0388
Mansfield,Mansfield,TX,Texas,48439,Tarrant,32.569,-97.1213
Ellicott City,Ellicott City,MD,Maryland,24027,Howard,39.2774,-76.8345
Sheboygan,Sheboygan,WI,Wisconsin,55117,Sheboygan,43.7403,-87.7316
Mansfield,Mansfield,OH,Ohio,39139,Richland,40.7656,-82.5275
Glens Falls,Glens Falls,NY,New York,36113,Warren,43.3109,-73.6458
Daytona Beach,Daytona Beach,FL,Florida,12127,Volusia,29.1995,-81.0982
Lodi,Lodi,CA,California,6077,San Joaquin,38.1218,-121.2932
Redlands,Redlands,CA,California,6071,San Bernardino,34.0512,-117.1712
Harrisonburg,Harrisonburg,VA,Virginia,51660,Harrisonburg,38.4362,-78.8735
Dothan,Dothan,AL,Alabama,1069,Houston,31.2336,-85.407
Cleveland,Cleveland,TN,Tennessee,47011,Bradley,35.1817,-84.8707
Jackson,Jackson,TN,Tennessee,47113,Madison,35.6538,-88.8354
Mount Vernon,Mount Vernon,NY,New York,36119,Westchester,40.9136,-73.8291
Centreville,Centreville,VA,Virginia,51059,Fairfax,38.839,-77.4389
Altoona,Altoona,PA,Pennsylvania,42013,Blair,40.5082,-78.4007
Framingham,Framingham,MA,Massachusetts,25017,Middlesex,42.3085,-71.4368
Camden,Camden,NJ,New Jersey,34007,Camden,39.9361,-75.1073
Georgetown,Georgetown,TX,Texas,48491,Williamson,30.666,-97.6966
Baldwin Park,Baldwin Park,CA,California,6037,Los Angeles,34.0829,-117.9722
Rocklin,Rocklin,CA,California,6061,Placer,38.8075,-121.2489
Porterville,Porterville,CA,California,6107,Tulare,36.0643,-119.0338
Tamarac,Tamarac,FL,Florida,12011,Broward,26.2056,-80.2539
Glen Burnie,Glen Burnie,MD,Maryland,24003,Anne Arundel,39.156,-76.6071
Blacksburg,Blacksburg,VA,Virginia,51121,Montgomery,37.23,-80.4279
Wausau,Wausau,WI,Wisconsin,55073,Marathon,44.962,-89.6459
Sumter,Sumter,SC,South Carolina,45085,Sumter,33.9392,-80.393
Janesville,Janesville,WI,Wisconsin,55105,Rock,42.6854,-89.0135
Brunswick,Brunswick,GA,Georgia,13127,Glynn,31.1449,-81.4746
Dublin,Dublin,CA,California,6001,Alameda,37.7161,-121.8963
Wilmington,Wilmington,DE,Delaware,10003,New Castle,39.7415,-75.5416
Waukesha,Waukesha,WI,Wisconsin,55133,Waukesha,43.0087,-88.2464
Fairbanks,Fairbanks,AK,Alaska,2090,Fairbanks North Star,64.8353,-147.6533
Lakeville,Lakeville,MN,Minnesota,27037,Dakota,44.6774,-93.252
St. Charles,St. Charles,MO,Missouri,29183,St. Charles,38.7954,-90.5157
Redondo Beach,Redondo Beach,CA,California,6037,Los Angeles,33.8577,-118.3765
Spring Hill,Spring Hill,TN,Tennessee,47119,Maury,35.7437,-86.9116
Bayonne,Bayonne,NJ,New Jersey,34017,Hudson,40.6668,-74.1158
Grand Forks,Grand Forks,ND,North Dakota,38035,Grand Forks,47.9214,-97.0884
Noblesville,Noblesville,IN,Indiana,18057,Hamilton,40.0355,-86.0042
Guaynabo,Guaynabo,PR,Puerto Rico,72061,Guaynabo,18.3832,-66.1134
El Paso de Robles,El Paso de Robles,CA,California,6079,San Luis Obispo,35.6394,-120.656
North Richland Hills,North Richland Hills,TX,Texas,48439,Tarrant,32.8604,-97.218
Maple Grove,Maple Grove,MN,Minnesota,27053,Hennepin,45.1089,-93.4626
Passaic,Passaic,NJ,New Jersey,34031,Passaic,40.8574,-74.1282
Blaine,Blaine,MN,Minnesota,27003,Anoka,45.1696,-93.2077
Lake Elsinore,Lake Elsinore,CA,California,6065,Riverside,33.6847,-117.3344
Rogers,Rogers,AR,Arkansas,5007,Benton,36.317,-94.1531
Casas Adobes,Casas Adobes,AZ,Arizona,4019,Pima,32.3423,-111.0113
Sherman,Sherman,TX,Texas,48181,Grayson,33.6273,-96.6221
Walnut Creek,Walnut Creek,CA,California,6013,Contra Costa,37.9024,-122.0399
Conway,Conway,AR,Arkansas,5045,Faulkner,35.0753,-92.4692
Eastvale,Eastvale,CA,California,6065,Riverside,33.9617,-117.5803
Union City,Union City,CA,California,6001,Alameda,37.6032,-122.0181
Michigan City,Michigan City,IN,Indiana,18091,LaPorte,41.7092,-86.869
Poinciana,Poinciana,FL,Florida,12105,Polk,28.1217,-81.4821
Tulare,Tulare,CA,California,6107,Tulare,36.1995,-119.34
Gary,Gary,IN,Indiana,18089,Lake,41.5905,-87.3473
Gaithersburg,Gaithersburg,MD,Maryland,24031,Montgomery,39.1346,-77.2131
East Orange,East Orange,NJ,New Jersey,34013,Essex,40.7651,-74.2117
Wesley Chapel,Wesley Chapel,FL,Florida,12101,Pasco,28.2106,-82.3238
West Des Moines,West Des Moines,IA,Iowa,19153,Polk,41.5521,-93.7806
Dalton,Dalton,GA,Georgia,13313,Whitfield,34.769,-84.972
Dubuque,Dubuque,IA,Iowa,19061,Dubuque,42.5002,-90.707
Schenectady,Schenectady,NY,New York,36093,Schenectady,42.8025,-73.9275
Ankeny,Ankeny,IA,Iowa,19153,Polk,41.7288,-93.6031
Maricopa,Maricopa,AZ,Arizona,4021,Pinal,33.0408,-112.0011
Eagan,Eagan,MN,Minnesota,27037,Dakota,44.817,-93.1638
Hanford,Hanford,CA,California,6031,Kings,36.3274,-119.6549
Bristol,Bristol,TN,Tennessee,47163,Sullivan,36.5572,-82.2154
Yorba Linda,Yorba Linda,CA,California,6059,Orange,33.889,-117.7714
Weston,Weston,FL,Florida,12011,Broward,26.1006,-80.4054
Watsonville,Watsonville,CA,California,6087,Santa Cruz,36.9206,-121.7708
Palo Alto,Palo Alto,CA,California,6085,Santa Clara,37.3905,-122.1468
South Hill,South Hill,WA,Washington,53053,Pierce,47.1198,-122.2853
Shawnee,Shawnee,KS,Kansas,20091,Johnson,39.0158,-94.8076
San Marcos,San Marcos,TX,Texas,48209,Hays,29.8734,-97.9356
Great Falls,Great Falls,MT,Montana,30013,Cascade,47.5022,-111.2996
Haverhill,Haverhill,MA,Massachusetts,25009,Essex,42.7838,-71.0871
Union City,Union City,NJ,New Jersey,34017,Hudson,40.7675,-74.0323
Palatine,Palatine,IL,Illinois,17031,Cook,42.118,-88.043
Longview,Longview,WA,Washington,53015,Cowlitz,46.1461,-122.963
Corvallis,Corvallis,OR,Oregon,41003,Benton,44.5698,-123.2779
Rockville,Rockville,MD,Maryland,24031,Montgomery,39.0834,-77.1553
Skokie,Skokie,IL,Illinois,17031,Cook,42.036,-87.74
Mount Vernon,Mount Vernon,WA,Washington,53057,Skagit,48.4203,-122.3115
Casper,Casper,WY,Wyoming,56025,Natrona,42.842,-106.3208
Ames,Ames,IA,Iowa,19169,Story,42.0256,-93.6217
Delray Beach,Delray Beach,FL,Florida,12099,Palm Beach,26.455,-80.0905
Sammamish,Sammamish,WA,Washington,53033,King,47.6017,-122.0416
Lynwood,Lynwood,CA,California,6037,Los Angeles,33.924,-118.2016
Dundalk,Dundalk,MD,Maryland,24005,Baltimore,39.2704,-76.4942
Bethesda,Bethesda,MD,Maryland,24031,Montgomery,38.9866,-77.1188
Morristown,Morristown,TN,Tennessee,47063,Hamblen,36.2043,-83.3001
Juana Díaz,Juana Diaz,PR,Puerto Rico,72075,Juana Díaz,18.0532,-66.5044
Kankakee,Kankakee,IL,Illinois,17091,Kankakee,41.102,-87.8643
Fajardo,Fajardo,PR,Puerto Rico,72053,Fajardo,18.3331,-65.6589
Alpharetta,Alpharetta,GA,Georgia,13121,Fulton,34.0704,-84.2738
Novi,Novi,MI,Michigan,26125,Oakland,42.4786,-83.4893
Kenner,Kenner,LA,Louisiana,22051,Jefferson,30.0109,-90.2549
Bay City,Bay City,MI,Michigan,26017,Bay,43.5902,-83.8887
Victoria,Victoria,TX,Texas,48469,Victoria,28.8287,-96.9849
South San Francisco,South San Francisco,CA,California,6081,San Mateo,37.6538,-122.4196
Apex,Apex,NC,North Carolina,37183,Wake,35.7237,-78.8743
Parkersburg,Parkersburg,WV,West Virginia,54107,Wood,39.2623,-81.542
Malden,Malden,MA,Massachusetts,25017,Middlesex,42.4305,-71.0576
Castro Valley,Castro Valley,CA,California,6001,Alameda,37.7088,-122.0626
Bozeman,Bozeman,MT,Montana,30031,Gallatin,45.6833,-111.0558
Brentwood,Brentwood,NY,New York,36103,Suffolk,40.7839,-73.2522
Waltham,Waltham,MA,Massachusetts,25017,Middlesex,42.3889,-71.2423
Pflugerville,Pflugerville,TX,Texas,48453,Travis,30.4515,-97.6018
North Little Rock,North Little Rock,AR,Arkansas,5119,Pulaski,34.7807,-92.2371
Brentwood,Brentwood,CA,California,6013,Contra Costa,37.9356,-121.719
Laguna Niguel,Laguna Niguel,CA,California,6059,Orange,33.5275,-117.705
San Clemente,San Clemente,CA,California,6059,Orange,33.4499,-117.6102
Burnsville,Burnsville,MN,Minnesota,27037,Dakota,44.7648,-93.2793
Spring,Spring,TX,Texas,48201,Harris,30.0613,-95.383
Port Charlotte,Port Charlotte,FL,Florida,12015,Charlotte,26.9918,-82.114
Eden Prairie,Eden Prairie,MN,Minnesota,27053,Hennepin,44.8488,-93.4595
Greenwood,Greenwood,IN,Indiana,18081,Johnson,39.6019,-86.1073
Millcreek,Millcreek,UT,Utah,49035,Salt Lake,40.6892,-111.8292
Bellevue,Bellevue,NE,Nebraska,31153,Sarpy,41.1485,-95.939
Coon Rapids,Coon Rapids,MN,Minnesota,27003,Anoka,45.1755,-93.3094
Rowlett,Rowlett,TX,Texas,48113,Dallas,32.9155,-96.5489
Hamilton,Hamilton,OH,Ohio,39017,Butler,39.3939,-84.5653
Lakewood,Lakewood,WA,Washington,53053,Pierce,47.1628,-122.5299
Florence-Graham,Florence-Graham,CA,California,6037,Los Angeles,33.9682,-118.2447
Commerce City,Commerce City,CO,Colorado,8001,Adams,39.8641,-104.843
Bossier City,Bossier City,LA,Louisiana,22015,Bossier,32.5224,-93.6668
Taylor,Taylor,MI,Michigan,26163,Wayne,42.226,-83.2688
La Habra,La Habra,CA,California,6059,Orange,33.9282,-117.9515
Port Orange,Port Orange,FL,Florida,12127,Volusia,29.1085,-81.0137
Moore,Moore,OK,Oklahoma,40027,Cleveland,35.3293,-97.4757
Council Bluffs,Council Bluffs,IA,Iowa,19155,Pottawattamie,41.2369,-95.8516
Leander,Leander,TX,Texas,48491,Williamson,30.5728,-97.8618
Dearborn Heights,Dearborn Heights,MI,Michigan,26163,Wayne,42.3164,-83.2769
Reston,Reston,VA,Virginia,51059,Fairfax,38.9497,-77.3461
Montebello,Montebello,CA,California,6037,Los Angeles,34.0155,-118.1108
Pontiac,Pontiac,MI,Michigan,26125,Oakland,42.6493,-83.2878
Encinitas,Encinitas,CA,California,6073,San Diego,33.0492,-117.261
Queen Creek,Queen Creek,AZ,Arizona,4013,Maricopa,33.2454,-111.6173
Medford,Medford,MA,Massachusetts,25017,Middlesex,42.4234,-71.1087
Springfield,Springfield,OR,Oregon,41039,Lane,44.0538,-122.9811
Hendersonville,Hendersonville,TN,Tennessee,47165,Sumner,36.3063,-86.5997
Palm Harbor,Palm Harbor,FL,Florida,12103,Pinellas,28.0847,-82.7481
Pico Rivera,Pico Rivera,CA,California,6037,Los Angeles,33.9901,-118.0888
Marietta,Marietta,GA,Georgia,13067,Cobb,33.9533,-84.5422
Wellington,Wellington,FL,Florida,12099,Palm Beach,26.6461,-80.2699
Sanford,Sanford,FL,Florida,12117,Seminole,28.7891,-81.2757
Woodland,Woodland,CA,California,6113,Yolo,38.6712,-121.75
Caldwell,Caldwell,ID,Idaho,16027,Canyon,43.6453,-116.6594
Huntersville,Huntersville,NC,North Carolina,37119,Mecklenburg,35.406,-80.8716
Bristol,Bristol,CT,Connecticut,9140,Naugatuck Valley,41.6812,-72.9407
Jupiter,Jupiter,FL,Florida,12099,Palm Beach,26.92,-80.1128
San Rafael,San Rafael,CA,California,6041,Marin,37.9905,-122.5221
La Mesa,La Mesa,CA,California,6073,San Diego,32.7703,-117.0204
Richland,Richland,WA,Washington,53005,Benton,46.2824,-119.2939
Revere,Revere,MA,Massachusetts,25025,Suffolk,42.4189,-71.004
Meriden,Meriden,CT,Connecticut,9170,South Central Connecticut,41.5369,-72.7946
Monterey Park,Monterey Park,CA,California,6037,Los Angeles,34.0497,-118.1326
Gardena,Gardena,CA,California,6037,Los Angeles,33.8943,-118.3072
Euless,Euless,TX,Texas,48439,Tarrant,32.8508,-97.08
Des Plaines,Des Plaines,IL,Illinois,17031,Cook,42.0345,-87.9008
West Allis,West Allis,WI,Wisconsin,55079,Milwaukee,43.0068,-88.0296
North Miami,North Miami,FL,Florida,12086,Miami-Dade,25.9008,-80.1686
St. Cloud,St. Cloud,FL,Florida,12097,Osceola,28.2363,-81.2779
The Hammocks,The Hammocks,FL,Florida,12086,Miami-Dade,25.67,-80.4482
Cupertino,Cupertino,CA,California,6085,Santa Clara,37.3168,-122.0466
Taylorsville,Taylorsville,UT,Utah,49035,Salt Lake,40.6569,-111.9493
Petaluma,Petaluma,CA,California,6097,Sonoma,38.2423,-122.6266
Kokomo,Kokomo,IN,Indiana,18067,Howard,40.464,-86.1277
Santee,Santee,CA,California,6073,San Diego,32.8554,-116.9851
Stonecrest,Stonecrest,GA,Georgia,13089,DeKalb,33.6842,-84.1372
Taunton,Taunton,MA,Massachusetts,25005,Bristol,41.9036,-71.0943
White Plains,White Plains,NY,New York,36119,Westchester,41.022,-73.7547
Palm Beach Gardens,Palm Beach Gardens,FL,Florida,12099,Palm Beach,26.8466,-80.1679
Chapel Hill,Chapel Hill,NC,North Carolina,37135,Orange,35.9271,-79.0391
Hoboken,Hoboken,NJ,New Jersey,34017,Hudson,40.7452,-74.0281
Parker,Parker,CO,Colorado,8035,Douglas,39.5084,-104.7753
Blue Springs,Blue Springs,MO,Missouri,29095,Jackson,39.0124,-94.2721
Shoreline,Shoreline,WA,Washington,53033,King,47.7564,-122.3426
St. Clair Shores,St. Clair Shores,MI,Michigan,26099,Macomb,42.4925,-82.8961
Horizon West,Horizon West,FL,Florida,12095,Orange,28.4417,-81.6146
Margate,Margate,FL,Florida,12011,Broward,26.2466,-80.2119
Orland Park,Orland Park,IL,Illinois,17031,Cook,41.6075,-87.8619
Carson City,Carson City,NV,Nevada,32510,Carson City,39.1511,-119.7476
Midwest City,Midwest City,OK,Oklahoma,40109,Oklahoma,35.463,-97.371
Royal Oak,Royal Oak,MI,Michigan,26125,Oakland,42.5084,-83.1539
Bowie,Bowie,MD,Maryland,24033,Prince George's,38.9549,-76.7406
Kettering,Kettering,OH,Ohio,39113,Montgomery,39.6956,-84.1494
St. Peters,St. Peters,MO,Missouri,29183,St. Charles,38.7825,-90.6061
Oak Lawn,Oak Lawn,IL,Illinois,17031,Cook,41.7139,-87.7528
Towson,Towson,MD,Maryland,24005,Baltimore,39.3944,-76.619
Coconut Creek,Coconut Creek,FL,Florida,12011,Broward,26.2803,-80.1842
Decatur,Decatur,AL,Alabama,1103,Morgan,34.5731,-86.9905
Lenexa,Lenexa,KS,Kansas,20091,Johnson,38.9609,-94.8018
Bartlett,Bartlett,TN,Tennessee,47157,Shelby,35.2337,-89.8195
South Whittier,South Whittier,CA,California,6037,Los Angeles,33.9336,-118.0312
Lake Havasu City,Lake Havasu City,AZ,Arizona,4015,Mohave,34.5006,-114.3113
Bel Air South,Bel Air South,MD,Maryland,24025,Harford,39.5022,-76.3113
Fountainebleau,Fountainebleau,FL,Florida,12086,Miami-Dade,25.7723,-80.346
Wylie,Wylie,TX,Texas,48085,Collin,33.0362,-96.5161
Madison,Madison,AL,Alabama,1089,Madison,34.7114,-86.7626
Brookhaven,Brookhaven,GA,Georgia,13089,DeKalb,33.8743,-84.3314
Highland,Highland,CA,California,6071,San Bernardino,34.1113,-117.165
Fountain Valley,Fountain Valley,CA,California,6059,Orange,33.7105,-117.9514
Berwyn,Berwyn,IL,Illinois,17031,Cook,41.8433,-87.7909
Severn,Severn,MD,Maryland,24003,Anne Arundel,39.1355,-76.6956
Albany,Albany,OR,Oregon,41043,Linn,44.6272,-123.0965
National City,National City,CA,California,6073,San Diego,32.6654,-117.0983
Lacey,Lacey,WA,Washington,53067,Thurston,47.0462,-122.7933
Mount Prospect,Mount Prospect,IL,Illinois,17031,Cook,42.0641,-87.9375
Arcadia,Arcadia,CA,California,6037,Los Angeles,34.1342,-118.0373
DeSoto,DeSoto,TX,Texas,48113,Dallas,32.5992,-96.8633
Smyrna,Smyrna,GA,Georgia,13067,Cobb,33.8633,-84.5168
Bradenton,Bradenton,FL,Florida,12081,Manatee,27.4901,-82.5757
New Brunswick,New Brunswick,NJ,New Jersey,34023,Middlesex,40.487,-74.445
Apple Valley,Apple Valley,MN,Minnesota,27037,Dakota,44.7457,-93.2004
Tinley Park,Tinley Park,IL,Illinois,17031,Cook,41.567,-87.8049
Sarasota,Sarasota,FL,Florida,12115,Sarasota,27.3387,-82.5432
Hacienda Heights,Hacienda Heights,CA,California,6037,Los Angeles,33.997,-117.9727
Chicopee,Chicopee,MA,Massachusetts,25013,Hampden,42.1764,-72.5719
West Haven,West Haven,CT,Connecticut,9170,South Central Connecticut,41.2739,-72.9672
Herriman,Herriman,UT,Utah,49035,Salt Lake,40.4899,-112.017
Perth Amboy,Perth Amboy,NJ,New Jersey,34023,Middlesex,40.5202,-74.2724
Casa Grande,Casa Grande,AZ,Arizona,4021,Pinal,32.9069,-111.7624
Tigard,Tigard,OR,Oregon,41067,Washington,45.4237,-122.7845
Apopka,Apopka,FL,Florida,12095,Orange,28.7015,-81.5316
Southaven,Southaven,MS,Mississippi,28033,DeSoto,34.9514,-89.9786
Huntington Park,Huntington Park,CA,California,6037,Los Angeles,33.98,-118.2167
Diamond Bar,Diamond Bar,CA,California,6037,Los Angeles,33.9992,-117.8161
Bentonville,Bentonville,AR,Arkansas,5007,Benton,36.3547,-94.2305
Yucaipa,Yucaipa,CA,California,6071,San Bernardino,34.0336,-117.0429
Plainfield,Plainfield,NJ,New Jersey,34039,Union,40.6154,-74.4157
Manhattan,Manhattan,KS,Kansas,20161,Riley,39.1886,-96.6048
Aspen Hill,Aspen Hill,MD,Maryland,24031,Montgomery,39.0927,-77.0826
Rocky Mount,Rocky Mount,NC,North Carolina,37127,Nash,35.9685,-77.804
Peabody,Peabody,MA,Massachusetts,25009,Essex,42.5335,-70.9725
West Sacramento,West Sacramento,CA,California,6113,Yolo,38.5557,-121.5505
San Jacinto,San Jacinto,CA,California,6065,Riverside,33.797,-116.9916
Kentwood,Kentwood,MI,Michigan,26081,Kent,42.8852,-85.5926
Colton,Colton,CA,California,6071,San Bernardino,34.0538,-117.3255
Oak Park,Oak Park,IL,Illinois,17031,Cook,41.8872,-87.7899
Westchester,Westchester,FL,Florida,12086,Miami-Dade,25.7471,-80.3523
Smyrna,Smyrna,TN,Tennessee,47149,Rutherford,35.9687,-86.5264
Wheaton,Wheaton,IL,Illinois,17043,DuPage,41.8561,-88.1085
Beaumont,Beaumont,CA,California,6065,Riverside,33.9076,-116.9766
Aloha,Aloha,OR,Oregon,41067,Washington,45.492,-122.8725
Minnetonka,Minnetonka,MN,Minnesota,27053,Hennepin,44.9322,-93.4598
Pinellas Park,Pinellas Park,FL,Florida,12103,Pinellas,27.8589,-82.7078
Kannapolis,Kannapolis,NC,North Carolina,37025,Cabarrus,35.4764,-80.6408
Paramount,Paramount,CA,California,6037,Los Angeles,33.8977,-118.1651
Texas City,Texas City,TX,Texas,48167,Galveston,29.4154,-94.9682
Novato,Novato,CA,California,6041,Marin,38.092,-122.5575
Edina,Edina,MN,Minnesota,27053,Hennepin,44.8914,-93.3602
Normal,Normal,IL,Illinois,17113,McLean,40.5217,-88.9884
Tamiami,Tamiami,FL,Florida,12086,Miami-Dade,25.7556,-80.4016
Grand Island,Grand Island,NE,Nebraska,31079,Hall,40.9218,-98.3586
Methuen Town,Methuen Town,MA,Massachusetts,25009,Essex,42.734,-71.1889
Elyria,Elyria,OH,Ohio,39093,Lorain,41.376,-82.106
Wheaton,Wheaton,MD,Maryland,24031,Montgomery,39.0492,-77.0573
Kendale Lakes,Kendale Lakes,FL,Florida,12086,Miami-Dade,25.7081,-80.4078
Marana,Marana,AZ,Arizona,4019,Pima,32.4355,-111.1558
West New York,West New York,NJ,New Jersey,34017,Hudson,40.7857,-74.0094
Twin Falls,Twin Falls,ID,Idaho,16083,Twin Falls,42.5645,-114.4613
Florissant,Florissant,MO,Missouri,29189,St. Louis,38.7996,-90.3269
Glendora,Glendora,CA,California,6037,Los Angeles,34.1449,-117.8467
Cathedral City,Cathedral City,CA,California,6065,Riverside,33.8362,-116.4642
Aliso Viejo,Aliso Viejo,CA,California,6059,Orange,33.5792,-117.7289
Placentia,Placentia,CA,California,6059,Orange,33.8807,-117.8553
Hoffman Estates,Hoffman Estates,IL,Illinois,17031,Cook,42.064,-88.1468
Burien,Burien,WA,Washington,53033,King,47.4762,-122.3394
Dunwoody,Dunwoody,GA,Georgia,13089,DeKalb,33.9418,-84.3122
Palm Desert,Palm Desert,CA,California,6065,Riverside,33.7378,-116.3695
Troy,Troy,NY,New York,36083,Rensselaer,42.7354,-73.6751
Collierville,Collierville,TN,Tennessee,47157,Shelby,35.047,-89.6987
Levittown,Levittown,PA,Pennsylvania,42017,Bucks,40.1533,-74.8531
Rosemead,Rosemead,CA,California,6037,Los Angeles,34.0689,-118.0823
Country Club,Country Club,FL,Florida,12086,Miami-Dade,25.9407,-80.3102
Enid,Enid,OK,Oklahoma,40047,Garfield,36.4063,-97.87
Cuyahoga Falls,Cuyahoga Falls,OH,Ohio,39153,Summit,41.1641,-81.5207
Mishawaka,Mishawaka,IN,Indiana,18141,St. Joseph,41.6742,-86.1666
Columbus,Columbus,IN,Indiana,18005,Bartholomew,39.2093,-85.9183
Summerville,Summerville,SC,South Carolina,45035,Dorchester,33.0016,-80.1799
Levittown,Levittown,NY,New York,36059,Nassau,40.7241,-73.5125
Grapevine,Grapevine,TX,Texas,48439,Tarrant,32.9343,-97.0742
Covina,Covina,CA,California,6037,Los Angeles,34.0903,-117.8818
Milford city ,Milford city ,CT,Connecticut,9170,South Central Connecticut,41.2255,-73.0625
Draper,Draper,UT,Utah,49035,Salt Lake,40.4957,-111.8605
Lakewood,Lakewood,OH,Ohio,39035,Cuyahoga,41.4822,-81.8008
Catalina Foothills,Catalina Foothills,AZ,Arizona,4019,Pima,32.3046,-110.8838
Delano,Delano,CA,California,6029,Kern,35.7662,-119.2635
Lincoln,Lincoln,CA,California,6061,Placer,38.8774,-121.2937
Murray,Murray,UT,Utah,49035,Salt Lake,40.6498,-111.8874
Mooresville,Mooresville,NC,North Carolina,37097,Iredell,35.5847,-80.8266
Downers Grove,Downers Grove,IL,Illinois,17043,DuPage,41.7949,-88.0172
Florin,Florin,CA,California,6067,Sacramento,38.4832,-121.4043
Cypress,Cypress,CA,California,6059,Orange,33.8171,-118.0386
Jeffersonville,Jeffersonville,IN,Indiana,18019,Clark,38.3376,-85.7026
North Bethesda,North Bethesda,MD,Maryland,24031,Montgomery,39.0393,-77.1191
Azusa,Azusa,CA,California,6037,Los Angeles,34.1386,-117.9124
Coral Gables,Coral Gables,FL,Florida,12086,Miami-Dade,25.7037,-80.2715
Chesterfield,Chesterfield,MO,Missouri,29189,St. Louis,38.6589,-90.5803
McLean,McLean,VA,Virginia,51059,Fairfax,38.9436,-77.1943
St. Louis Park,St. Louis Park,MN,Minnesota,27053,Hennepin,44.9488,-93.3649
East Honolulu,East Honolulu,HI,Hawaii,15003,Honolulu,21.2975,-157.7211
Bedford,Bedford,TX,Texas,48439,Tarrant,32.8464,-97.135
Euclid,Euclid,OH,Ohio,39035,Cuyahoga,41.5903,-81.5188
Lawrence,Lawrence,IN,Indiana,18097,Marion,39.8674,-85.9904
Ceres,Ceres,CA,California,6099,Stanislaus,37.5952,-120.962
University,University,FL,Florida,12057,Hillsborough,28.0771,-82.4335
Biloxi,Biloxi,MS,Mississippi,28047,Harrison,30.4426,-88.9514
El Dorado Hills,El Dorado Hills,CA,California,6017,El Dorado,38.675,-121.049
Cerritos,Cerritos,CA,California,6037,Los Angeles,33.8678,-118.0686
Burleson,Burleson,TX,Texas,48251,Johnson,32.517,-97.3344
Portage,Portage,MI,Michigan,26077,Kalamazoo,42.2,-85.5906
Dublin,Dublin,OH,Ohio,39049,Franklin,40.1112,-83.1454
Poway,Poway,CA,California,6073,San Diego,32.9871,-117.0201
Cedar Hill,Cedar Hill,TX,Texas,48113,Dallas,32.581,-96.9591
Everett,Everett,MA,Massachusetts,25017,Middlesex,42.4064,-71.0545
Stillwater,Stillwater,OK,Oklahoma,40119,Payne,36.1317,-97.0742
Titusville,Titusville,FL,Florida,12009,Brevard,28.5727,-80.8193
Niagara Falls,Niagara Falls,NY,New York,36063,Niagara,43.0921,-79.0147
Kyle,Kyle,TX,Texas,48209,Hays,29.9932,-97.8852
Leesburg,Leesburg,VA,Virginia,51107,Loudoun,39.1057,-77.5544
Westfield,Westfield,IN,Indiana,18057,Hamilton,40.0341,-86.1529
Little Elm,Little Elm,TX,Texas,48121,Denton,33.1858,-96.9295
Middletown,Middletown,CT,Connecticut,9130,Lower Connecticut River Valley,41.5476,-72.6549
North Highlands,North Highlands,CA,California,6067,Sacramento,38.6713,-121.3721
Tuckahoe,Tuckahoe,VA,Virginia,51087,Henrico,37.5878,-77.5858
Wake Forest,Wake Forest,NC,North Carolina,37183,Wake,35.9632,-78.514
Minot,Minot,ND,North Dakota,38101,Ward,48.2375,-101.278
Roswell,Roswell,NM,New Mexico,35005,Chaves,33.373,-104.5294
Wauwatosa,Wauwatosa,WI,Wisconsin,55079,Milwaukee,43.0616,-88.0347
Bothell,Bothell,WA,Washington,53033,King,47.7735,-122.2044
Glenview,Glenview,IL,Illinois,17031,Cook,42.0825,-87.8214
Rockwall,Rockwall,TX,Texas,48397,Rockwall,32.9169,-96.4374
Wilson,Wilson,NC,North Carolina,37195,Wilson,35.7311,-77.9284
Rancho Santa Margarita,Rancho Santa Margarita,CA,California,6059,Orange,33.6318,-117.5988
La Mirada,La Mirada,CA,California,6037,Los Angeles,33.9025,-118.0093
Antelope,Antelope,CA,California,6067,Sacramento,38.7153,-121.361
Hilo,Hilo,HI,Hawaii,15001,Hawaii,19.6883,-155.0863
San Luis Obispo,San Luis Obispo,CA,California,6079,San Luis Obispo,35.2669,-120.669
Roseville,Roseville,MI,Michigan,26099,Macomb,42.5074,-82.9369
Newark,Newark,CA,California,6001,Alameda,37.5201,-122.0307
Mentor,Mentor,OH,Ohio,39085,Lake,41.6893,-81.3362
Ocoee,Ocoee,FL,Florida,12095,Orange,28.5796,-81.5332
Rowland Heights,Rowland Heights,CA,California,6037,Los Angeles,33.9716,-117.8912
Fort Pierce,Fort Pierce,FL,Florida,12111,St. Lucie,27.4255,-80.3431
Brea,Brea,CA,California,6059,Orange,33.9254,-117.8655
Oro Valley,Oro Valley,AZ,Arizona,4019,Pima,32.4208,-110.9767
East Providence,East Providence,RI,Rhode Island,44007,Providence,41.8065,-71.3565
Pearl City,Pearl City,HI,Hawaii,15003,Honolulu,21.4031,-157.9566
Salina,Salina,KS,Kansas,20169,Saline,38.8136,-97.6143
Beavercreek,Beavercreek,OH,Ohio,39057,Greene,39.731,-84.0624
Winter Garden,Winter Garden,FL,Florida,12095,Orange,28.5421,-81.5967
Potomac,Potomac,MD,Maryland,24031,Montgomery,39.0141,-77.1943
Farmington,Farmington,NM,New Mexico,35045,San Juan,36.7555,-108.1823
Attleboro,Attleboro,MA,Massachusetts,25005,Bristol,41.9311,-71.295
Huntsville,Huntsville,TX,Texas,48471,Walker,30.7009,-95.5567
Strongsville,Strongsville,OH,Ohio,39035,Cuyahoga,41.3128,-81.8313
Eagle Mountain,Eagle Mountain,UT,Utah,49049,Utah,40.3137,-112.0114
Prescott,Prescott,AZ,Arizona,4025,Yavapai,34.5849,-112.4473
Olive Branch,Olive Branch,MS,Mississippi,28033,DeSoto,34.961,-89.8469
Goose Creek,Goose Creek,SC,South Carolina,45015,Berkeley,32.9927,-80.0055
Sicklerville,Sicklerville,NJ,New Jersey,34007,Camden,39.7452,-74.9934
Altamonte Springs,Altamonte Springs,FL,Florida,12117,Seminole,28.6615,-81.3953
Haltom City,Haltom City,TX,Texas,48439,Tarrant,32.8176,-97.2707
Hackensack,Hackensack,NJ,New Jersey,34003,Bergen,40.8891,-74.0462
Elmhurst,Elmhurst,IL,Illinois,17043,DuPage,41.8973,-87.9432
Urbandale,Urbandale,IA,Iowa,19153,Polk,41.639,-93.7812
Los Banos,Los Banos,CA,California,6047,Merced,37.063,-120.8406
Littleton,Littleton,CO,Colorado,8005,Arapahoe,39.5915,-105.0188
Ashburn,Ashburn,VA,Virginia,51107,Loudoun,39.0277,-77.4714
East Lansing,East Lansing,MI,Michigan,26065,Ingham,42.748,-84.4836
Bountiful,Bountiful,UT,Utah,49011,Davis,40.8721,-111.8647
Keller,Keller,TX,Texas,48439,Tarrant,32.9335,-97.2256
Morgan Hill,Morgan Hill,CA,California,6085,Santa Clara,37.1325,-121.6419
Sierra Vista,Sierra Vista,AZ,Arizona,4003,Cochise,31.563,-110.3153
Sayreville,Sayreville,NJ,New Jersey,34023,Middlesex,40.4656,-74.3237
Odenton,Odenton,MD,Maryland,24003,Anne Arundel,39.0661,-76.6938
Cleveland Heights,Cleveland Heights,OH,Ohio,39035,Cuyahoga,41.5113,-81.5636
Gallatin,Gallatin,TN,Tennessee,47165,Sumner,36.3782,-86.4698
Plainfield,Plainfield,IL,Illinois,17197,Will,41.6207,-88.2253
Palm Springs,Palm Springs,CA,California,6065,Riverside,33.8017,-116.5382
Riverton,Riverton,UT,Utah,49035,Salt Lake,40.5176,-111.9636
West Lafayette,West Lafayette,IN,Indiana,18157,Tippecanoe,40.4432,-86.9238
Brentwood,Brentwood,TN,Tennessee,47187,Williamson,35.9918,-86.7758
Cutler Bay,Cutler Bay,FL,Florida,12086,Miami-Dade,25.5765,-80.3356
Lake Ridge,Lake Ridge,VA,Virginia,51153,Prince William,38.6847,-77.3066
Whitney,Whitney,NV,Nevada,32003,Clark,36.1008,-115.0379
Pahrump,Pahrump,NV,Nevada,32023,Nye,36.2235,-115.9974
North Lauderdale,North Lauderdale,FL,Florida,12011,Broward,26.2113,-80.2209
Fairfield,Fairfield,OH,Ohio,39017,Butler,39.3301,-84.5409
Wentzville,Wentzville,MO,Missouri,29183,St. Charles,38.8153,-90.8669
Salem,Salem,MA,Massachusetts,25009,Essex,42.5129,-70.9021
Fond du Lac,Fond du Lac,WI,Wisconsin,55039,Fond du Lac,43.7718,-88.4397
Rohnert Park,Rohnert Park,CA,California,6097,Sonoma,38.3479,-122.6965
Mankato,Mankato,MN,Minnesota,27013,Blue Earth,44.1715,-93.9772
Moorhead,Moorhead,MN,Minnesota,27027,Clay,46.8673,-96.7461
The Colony,The Colony,TX,Texas,48121,Denton,33.0925,-96.8976
Burke,Burke,VA,Virginia,51059,Fairfax,38.7773,-77.2633
Freeport,Freeport,NY,New York,36059,Nassau,40.6515,-73.585
El Centro,El Centro,CA,California,6025,Imperial,32.7865,-115.5595
Shakopee,Shakopee,MN,Minnesota,27139,Scott,44.7745,-93.4772
Wilkes-Barre,Wilkes-Barre,PA,Pennsylvania,42079,Luzerne,41.2469,-75.876
Lompoc,Lompoc,CA,California,6083,Santa Barbara,34.6618,-120.4714
Hicksville,Hicksville,NY,New York,36059,Nassau,40.7637,-73.5245
Oakland Park,Oakland Park,FL,Florida,12011,Broward,26.178,-80.1528
Lombard,Lombard,IL,Illinois,17043,DuPage,41.8741,-88.0157
Concord,Concord,NH,New Hampshire,33013,Merrimack,43.2305,-71.5595
Pittsfield,Pittsfield,MA,Massachusetts,25003,Berkshire,42.4517,-73.2605
Greenacres,Greenacres,FL,Florida,12099,Palm Beach,26.627,-80.1371
Oakley,Oakley,CA,California,6013,Contra Costa,37.9929,-121.6952
Linden,Linden,NJ,New Jersey,34039,Union,40.6251,-74.2383
Campbell,Campbell,CA,California,6085,Santa Clara,37.2802,-121.9539
Danville,Danville,CA,California,6013,Contra Costa,37.8121,-121.9698
North Miami Beach,North Miami Beach,FL,Florida,12086,Miami-Dade,25.9302,-80.1659
Clermont,Clermont,FL,Florida,12069,Lake,28.5325,-81.7208
San Bruno,San Bruno,CA,California,6081,San Mateo,37.6256,-122.4313
Channelview,Channelview,TX,Texas,48201,Harris,29.7914,-95.1144
Trujillo Alto,Trujillo Alto,PR,Puerto Rico,72139,Trujillo Alto,18.3599,-66.0096
Ormond Beach,Ormond Beach,FL,Florida,12127,Volusia,29.2985,-81.1014
Huber Heights,Huber Heights,OH,Ohio,39113,Montgomery,39.8595,-84.113
Woonsocket,Woonsocket,RI,Rhode Island,44007,Providence,42.001,-71.4993
Buffalo Grove,Buffalo Grove,IL,Illinois,17097,Lake,42.1675,-87.9615
West Babylon,West Babylon,NY,New York,36103,Suffolk,40.7129,-73.3585
Catonsville,Catonsville,MD,Maryland,24005,Baltimore,39.2646,-76.7424
Altadena,Altadena,CA,California,6037,Los Angeles,34.1927,-118.1346
Edmonds,Edmonds,WA,Washington,53061,Snohomish,47.8115,-122.3533
Linton Hall,Linton Hall,VA,Virginia,51153,Prince William,38.7551,-77.575
Spanish Fork,Spanish Fork,UT,Utah,49049,Utah,40.1101,-111.6405
Newnan,Newnan,GA,Georgia,13077,Coweta,33.3767,-84.7761
Vineyard,Vineyard,CA,California,6067,Sacramento,38.474,-121.324
Jefferson City,Jefferson City,MO,Missouri,29051,Cole,38.5676,-92.1759
Manassas,Manassas,VA,Virginia,51683,Manassas,38.7479,-77.4838
Woodbridge,Woodbridge,VA,Virginia,51153,Prince William,38.6409,-77.258
Puyallup,Puyallup,WA,Washington,53053,Pierce,47.1793,-122.2902
Schertz,Schertz,TX,Texas,48029,Bexar,29.565,-98.2535
Coppell,Coppell,TX,Texas,48113,Dallas,32.9639,-96.9903
Danville,Danville,VA,Virginia,51590,Danville,36.5831,-79.4088
North Fort Myers,North Fort Myers,FL,Florida,12071,Lee,26.7244,-81.8485
Columbia,Columbia,TN,Tennessee,47119,Maury,35.6238,-87.0484
Moline,Moline,IL,Illinois,17161,Rock Island,41.4821,-90.492
Beverly,Beverly,MA,Massachusetts,25009,Essex,42.5681,-70.8627
Midland,Midland,MI,Michigan,26111,Midland,43.6241,-84.2319
Annandale,Annandale,VA,Virginia,51059,Fairfax,38.8324,-77.196
Coachella,Coachella,CA,California,6065,Riverside,33.6905,-116.143
Woodlawn,Woodlawn,MD,Maryland,24005,Baltimore,39.3054,-76.7489
Meadow Woods,Meadow Woods,FL,Florida,12095,Orange,28.3698,-81.3467
Coram,Coram,NY,New York,36103,Suffolk,40.8812,-73.0059
Belleville,Belleville,IL,Illinois,17163,St. Clair,38.5164,-89.99
Peachtree Corners,Peachtree Corners,GA,Georgia,13135,Gwinnett,33.967,-84.232
Hollister,Hollister,CA,California,6069,San Benito,36.8555,-121.3986
Holly Springs,Holly Springs,NC,North Carolina,37183,Wake,35.6526,-78.8399
Delaware,Delaware,OH,Ohio,39041,Delaware,40.2851,-83.0741
Rancho Palos Verdes,Rancho Palos Verdes,CA,California,6037,Los Angeles,33.7554,-118.3634
Waxahachie,Waxahachie,TX,Texas,48139,Ellis,32.4035,-96.8446
Mableton,Mableton,GA,Georgia,13067,Cobb,33.8133,-84.5655
Fitchburg,Fitchburg,MA,Massachusetts,25027,Worcester,42.5912,-71.8156
Bullhead City,Bullhead City,AZ,Arizona,4015,Mohave,35.1205,-114.5461
Grove City,Grove City,OH,Ohio,39049,Franklin,39.8654,-83.069
Maplewood,Maplewood,MN,Minnesota,27123,Ramsey,44.9842,-93.0247
Marion,Marion,IA,Iowa,19113,Linn,42.0451,-91.585
Marlborough,Marlborough,MA,Massachusetts,25017,Middlesex,42.3494,-71.5468
Brookfield,Brookfield,WI,Wisconsin,55133,Waukesha,43.064,-88.1231
French Valley,French Valley,CA,California,6065,Riverside,33.5999,-117.1069
Shelton,Shelton,CT,Connecticut,9140,Naugatuck Valley,41.306,-73.1383
Pine Bluff,Pine Bluff,AR,Arkansas,5069,Jefferson,34.2116,-92.0173
Kearny,Kearny,NJ,New Jersey,34017,Hudson,40.7528,-74.1202
Hallandale Beach,Hallandale Beach,FL,Florida,12011,Broward,25.9854,-80.1423
Germantown,Germantown,TN,Tennessee,47157,Shelby,35.0829,-89.7824
Milton,Milton,GA,Georgia,13121,Fulton,34.1353,-84.3139
Woburn,Woburn,MA,Massachusetts,25017,Middlesex,42.4869,-71.1543
Lancaster,Lancaster,TX,Texas,48113,Dallas,32.5922,-96.7739
Reynoldsburg,Reynoldsburg,OH,Ohio,39049,Franklin,39.9588,-82.7943
Covington,Covington,KY,Kentucky,21117,Kenton,39.0334,-84.5166
Friendswood,Friendswood,TX,Texas,48167,Galveston,29.511,-95.1981
Weslaco,Weslaco,TX,Texas,48215,Hidalgo,26.1599,-97.9877
Land O' Lakes,Land O' Lakes,FL,Florida,12101,Pasco,28.2075,-82.4476
Essex,Essex,MD,Maryland,24005,Baltimore,39.3021,-76.4449
Bartlett,Bartlett,IL,Illinois,17043,DuPage,41.9804,-88.2071
Westfield,Westfield,MA,Massachusetts,25013,Hampden,42.1382,-72.7561
Annapolis,Annapolis,MD,Maryland,24003,Anne Arundel,38.9706,-76.5047
DeKalb,DeKalb,IL,Illinois,17037,DeKalb,41.9314,-88.7481
Cedar Falls,Cedar Falls,IA,Iowa,19013,Black Hawk,42.5195,-92.4536
Lancaster,Lancaster,OH,Ohio,39045,Fairfield,39.7248,-82.6049
Brighton,Brighton,CO,Colorado,8001,Adams,39.9716,-104.7963
Crystal Lake,Crystal Lake,IL,Illinois,17111,McHenry,42.2333,-88.3351
Lake Oswego,Lake Oswego,OR,Oregon,41005,Clackamas,45.4129,-122.7004
Severna Park,Severna Park,MD,Maryland,24003,Anne Arundel,39.087,-76.5687
Findlay,Findlay,OH,Ohio,39063,Hancock,41.0469,-83.6379
Saratoga Springs,Saratoga Springs,UT,Utah,49049,Utah,40.345,-111.9154
New Berlin,New Berlin,WI,Wisconsin,55133,Waukesha,42.9726,-88.1291
Culver City,Culver City,CA,California,6037,Los Angeles,34.0058,-118.3968
Indian Trail,Indian Trail,NC,North Carolina,37179,Union,35.0699,-80.6452
Duncanville,Duncanville,TX,Texas,48113,Dallas,32.646,-96.9127
Valley Stream,Valley Stream,NY,New York,36059,Nassau,40.6647,-73.7043
Clinton,Clinton,MD,Maryland,24033,Prince George's,38.7499,-76.9063
The Acreage,The Acreage,FL,Florida,12099,Palm Beach,26.774,-80.2779
Romeoville,Romeoville,IL,Illinois,17197,Will,41.6318,-88.0997
Hurst,Hurst,TX,Texas,48439,Tarrant,32.8353,-97.1809
Post Falls,Post Falls,ID,Idaho,16055,Kootenai,47.7213,-116.9384
Hutchinson,Hutchinson,KS,Kansas,20155,Reno,38.0671,-97.9081
Chelsea,Chelsea,MA,Massachusetts,25025,Suffolk,42.3959,-71.0325
Waipahu,Waipahu,HI,Hawaii,15003,Honolulu,21.3859,-158.0101
Lynnwood,Lynnwood,WA,Washington,53061,Snohomish,47.8284,-122.3033
Lincoln Park,Lincoln Park,MI,Michigan,26163,Wayne,42.2432,-83.1811
Fort Lee,Fort Lee,NJ,New Jersey,34003,Bergen,40.8509,-73.9713
Cape Girardeau,Cape Girardeau,MO,Missouri,29031,Cape Girardeau,37.3109,-89.5597
Hobbs,Hobbs,NM,New Mexico,35025,Lea,32.7281,-103.16
Carol Stream,Carol Stream,IL,Illinois,17043,DuPage,41.9181,-88.1307
Plant City,Plant City,FL,Florida,12057,Hillsborough,28.014,-82.1201
Aventura,Aventura,FL,Florida,12086,Miami-Dade,25.9566,-80.1371
Lebanon,Lebanon,TN,Tennessee,47189,Wilson,36.204,-86.3481
Streamwood,Streamwood,IL,Illinois,17031,Cook,42.0209,-88.1779
Oviedo,Oviedo,FL,Florida,12117,Seminole,28.658,-81.1872
Mount Juliet,Mount Juliet,TN,Tennessee,47189,Wilson,36.199,-86.5115
Quincy,Quincy,IL,Illinois,17001,Adams,39.9336,-91.3799
Issaquah,Issaquah,WA,Washington,53033,King,47.5439,-122.0471
Parkland,Parkland,WA,Washington,53053,Pierce,47.1417,-122.4376
Park Ridge,Park Ridge,IL,Illinois,17031,Cook,42.0125,-87.8436
Cottage Grove,Cottage Grove,MN,Minnesota,27163,Washington,44.8161,-92.9274
Bell Gardens,Bell Gardens,CA,California,6037,Los Angeles,33.9663,-118.155
San Gabriel,San Gabriel,CA,California,6037,Los Angeles,34.0949,-118.099
Warren,Warren,OH,Ohio,39155,Trumbull,41.239,-80.8174
Security-Widefield,Security-Widefield,CO,Colorado,8041,El Paso,38.7489,-104.7142
Grants Pass,Grants Pass,OR,Oregon,41033,Josephine,42.4333,-123.3317
Keizer,Keizer,OR,Oregon,41047,Marion,45.0028,-123.0243
Roy,Roy,UT,Utah,49057,Weber,41.1714,-112.0485
Bettendorf,Bettendorf,IA,Iowa,19163,Scott,41.5657,-90.4765
Westerville,Westerville,OH,Ohio,39049,Franklin,40.1241,-82.921
Royal Palm Beach,Royal Palm Beach,FL,Florida,12099,Palm Beach,26.7038,-80.2241
Apache Junction,Apache Junction,AZ,Arizona,4021,Pinal,33.3985,-111.535
Navarre,Navarre,FL,Florida,12113,Santa Rosa,30.4174,-86.8907
Wheeling,Wheeling,IL,Illinois,17031,Cook,42.1308,-87.924
Lake Stevens,Lake Stevens,WA,Washington,53061,Snohomish,48.0024,-122.0953
Rexburg,Rexburg,ID,Idaho,16065,Madison,43.8226,-111.7919
Urbana,Urbana,IL,Illinois,17019,Champaign,40.1107,-88.1973
Rosenberg,Rosenberg,TX,Texas,48157,Fort Bend,29.5456,-95.8223
West Fargo,West Fargo,ND,North Dakota,38017,Cass,46.8573,-96.9057
La Presa,La Presa,CA,California,6073,San Diego,32.711,-117.0027
Menomonee Falls,Menomonee Falls,WI,Wisconsin,55133,Waukesha,43.1487,-88.1227
Vestavia Hills,Vestavia Hills,AL,Alabama,1073,Jefferson,33.4518,-86.7437
Calexico,Calexico,CA,California,6025,Imperial,32.6849,-115.4944
Valrico,Valrico,FL,Florida,12057,Hillsborough,27.9193,-82.2293
La Vergne,La Vergne,TN,Tennessee,47149,Rutherford,36.02,-86.5586
Atlantic City,Atlantic City,NJ,New Jersey,34001,Atlantic,39.3797,-74.4527
Clovis,Clovis,NM,New Mexico,35009,Curry,34.4376,-103.1923
Peachtree City,Peachtree City,GA,Georgia,13113,Fayette,33.3942,-84.571
Phenix City,Phenix City,AL,Alabama,1113,Russell,32.4585,-85.0253
DeLand,DeLand,FL,Florida,12127,Volusia,29.0225,-81.2875
Mechanicsville,Mechanicsville,VA,Virginia,51085,Hanover,37.6263,-77.3561
Stanton,Stanton,CA,California,6059,Orange,33.8003,-117.9935
Holyoke,Holyoke,MA,Massachusetts,25013,Hampden,42.2125,-72.6411
Winter Springs,Winter Springs,FL,Florida,12117,Seminole,28.6889,-81.2703
Owasso,Owasso,OK,Oklahoma,40143,Tulsa,36.2878,-95.8311
Prattville,Prattville,AL,Alabama,1001,Autauga,32.4597,-86.4573
East Point,East Point,GA,Georgia,13121,Fulton,33.6696,-84.4701
Pacifica,Pacifica,CA,California,6081,San Mateo,37.6113,-122.4782
Hot Springs,Hot Springs,AR,Arkansas,5051,Garland,34.4892,-93.0501
Adelanto,Adelanto,CA,California,6071,San Bernardino,34.5814,-117.4397
Princeton,Princeton,FL,Florida,12086,Miami-Dade,25.5396,-80.3971
Northglenn,Northglenn,CO,Colorado,8001,Adams,39.9108,-104.9783
Tupelo,Tupelo,MS,Mississippi,28081,Lee,34.2692,-88.7318
La Quinta,La Quinta,CA,California,6065,Riverside,33.6536,-116.2785
Elmont,Elmont,NY,New York,36059,Nassau,40.7033,-73.7078
Mission Bend,Mission Bend,TX,Texas,48157,Fort Bend,29.6948,-95.6658
Montclair,Montclair,CA,California,6071,San Bernardino,34.0715,-117.6981
La Puente,La Puente,CA,California,6037,Los Angeles,34.0323,-117.9533
Carpentersville,Carpentersville,IL,Illinois,17089,Kane,42.1227,-88.2896
Sun City,Sun City,AZ,Arizona,4013,Maricopa,33.6165,-112.2819
Portage,Portage,IN,Indiana,18127,Porter,41.5856,-87.1797
Hilton Head Island,Hilton Head Island,SC,South Carolina,45013,Beaufort,32.1896,-80.7499
Riviera Beach,Riviera Beach,FL,Florida,12099,Palm Beach,26.7813,-80.0741
Monrovia,Monrovia,CA,California,6037,Los Angeles,34.165,-117.9921
Foothill Farms,Foothill Farms,CA,California,6067,Sacramento,38.6867,-121.3475
Rome,Rome,GA,Georgia,13115,Floyd,34.2662,-85.1863
South Valley,South Valley,NM,New Mexico,35001,Bernalillo,35.0093,-106.6819
New Albany,New Albany,IN,Indiana,18043,Floyd,38.309,-85.8234
Lewiston,Lewiston,ME,Maine,23001,Androscoggin,44.0915,-70.1681
Winchester,Winchester,NV,Nevada,32003,Clark,36.1365,-115.137
Greenfield,Greenfield,WI,Wisconsin,55079,Milwaukee,42.9619,-88.0052
Georgetown,Georgetown,KY,Kentucky,21209,Scott,38.2247,-84.5487
Evans,Evans,GA,Georgia,13073,Columbia,33.5619,-82.1351
Pleasant Grove,Pleasant Grove,UT,Utah,49049,Utah,40.3716,-111.7412
Oregon City,Oregon City,OR,Oregon,41005,Clackamas,45.3418,-122.5924
Bartlesville,Bartlesville,OK,Oklahoma,40147,Washington,36.7365,-95.9456
Rock Island,Rock Island,IL,Illinois,17161,Rock Island,41.4699,-90.5827
Hanover Park,Hanover Park,IL,Illinois,17043,DuPage,41.9818,-88.1446
Leavenworth,Leavenworth,KS,Kansas,20103,Leavenworth,39.3239,-94.924
Martinez,Martinez,CA,California,6013,Contra Costa,37.9985,-122.1161
Greer,Greer,SC,South Carolina,45045,Greenville,34.933,-82.2313
Tucker,Tucker,GA,Georgia,13089,DeKalb,33.8436,-84.2024
Richmond West,Richmond West,FL,Florida,12086,Miami-Dade,25.6105,-80.4297
Muskogee,Muskogee,OK,Oklahoma,40101,Muskogee,35.7432,-95.3567
Claremont,Claremont,CA,California,6037,Los Angeles,34.1259,-117.7153
Kearns,Kearns,UT,Utah,49035,Salt Lake,40.6519,-112.0095
East Meadow,East Meadow,NY,New York,36059,Nassau,40.7197,-73.5604
Wildomar,Wildomar,CA,California,6065,Riverside,33.6173,-117.2582
Richfield,Richfield,MN,Minnesota,27053,Hennepin,44.8763,-93.2829
Estero,Estero,FL,Florida,12071,Lee,26.4276,-81.7951
Beloit,Beloit,WI,Wisconsin,55105,Rock,42.523,-89.0184
Oakton,Oakton,VA,Virginia,51059,Fairfax,38.8887,-77.3016
Central Islip,Central Islip,NY,New York,36103,Suffolk,40.7836,-73.1945
Franklin,Franklin,WI,Wisconsin,55079,Milwaukee,42.8854,-88.0104
Upper Arlington,Upper Arlington,OH,Ohio,39049,Franklin,40.0272,-83.0704
Copperas Cove,Copperas Cove,TX,Texas,48099,Coryell,31.1192,-97.914
Tooele,Tooele,UT,Utah,49045,Tooele,40.5393,-112.3082
Oak Creek,Oak Creek,WI,Wisconsin,55079,Milwaukee,42.8803,-87.9009
Randallstown,Randallstown,MD,Maryland,24005,Baltimore,39.3723,-76.8024
Merrillville,Merrillville,IN,Indiana,18089,Lake,41.4728,-87.3196
Temple City,Temple City,CA,California,6037,Los Angeles,34.1022,-118.0579
Carrollwood,Carrollwood,FL,Florida,12057,Hillsborough,28.0577,-82.5148
Hilliard,Hilliard,OH,Ohio,39049,Franklin,40.0353,-83.1578
Dunedin,Dunedin,FL,Florida,12103,Pinellas,28.0329,-82.7862
Moorpark,Moorpark,CA,California,6111,Ventura,34.2861,-118.8768
Roseville,Roseville,MN,Minnesota,27123,Ramsey,45.0155,-93.1545
Egypt Lake-Leto,Egypt Lake-Leto,FL,Florida,12057,Hillsborough,28.0177,-82.5062
Farmers Branch,Farmers Branch,TX,Texas,48113,Dallas,32.9272,-96.8804
Marion,Marion,OH,Ohio,39101,Marion,40.5973,-83.1227
Lauderdale Lakes,Lauderdale Lakes,FL,Florida,12011,Broward,26.1682,-80.2017
Chillum,Chillum,MD,Maryland,24033,Prince George's,38.9666,-76.9791
Orangevale,Orangevale,CA,California,6067,Sacramento,38.6881,-121.2209
Sun Prairie,Sun Prairie,WI,Wisconsin,55025,Dane,43.1825,-89.2362
Cedar City,Cedar City,UT,Utah,49021,Iron,37.6834,-113.0956
La Porte,La Porte,TX,Texas,48201,Harris,29.6689,-95.0484
Commack,Commack,NY,New York,36103,Suffolk,40.8435,-73.2833
Norristown,Norristown,PA,Pennsylvania,42091,Montgomery,40.1225,-75.3398
Calumet City,Calumet City,IL,Illinois,17031,Cook,41.6134,-87.5505
South Miami Heights,South Miami Heights,FL,Florida,12086,Miami-Dade,25.5886,-80.3862
Addison,Addison,IL,Illinois,17043,DuPage,41.9313,-88.0085
Inver Grove Heights,Inver Grove Heights,MN,Minnesota,27037,Dakota,44.8247,-93.0596
El Mirage,El Mirage,AZ,Arizona,4013,Maricopa,33.5905,-112.3271
Richmond,Richmond,IN,Indiana,18177,Wayne,39.8318,-84.8905
Midvale,Midvale,UT,Utah,49035,Salt Lake,40.6148,-111.8927
Kendall West,Kendall West,FL,Florida,12086,Miami-Dade,25.7065,-80.4388
Lima,Lima,OH,Ohio,39003,Allen,40.741,-84.112
Gahanna,Gahanna,OH,Ohio,39049,Franklin,40.0251,-82.8637
Olney,Olney,MD,Maryland,24031,Montgomery,39.1465,-77.0715
Torrington,Torrington,CT,Connecticut,9160,Northwest Hills,41.8349,-73.1282
Kaneohe,Kaneohe,HI,Hawaii,15003,Honolulu,21.4062,-157.7904
North Ridgeville,North Ridgeville,OH,Ohio,39093,Lorain,41.3852,-82.0195
San Juan,San Juan,TX,Texas,48215,Hidalgo,26.1903,-98.152
Midlothian,Midlothian,TX,Texas,48139,Ellis,32.4669,-96.989
Salisbury,Salisbury,NC,North Carolina,37159,Rowan,35.6658,-80.4905
Socorro,Socorro,TX,Texas,48141,El Paso,31.6383,-106.2601
Fuquay-Varina,Fuquay-Varina,NC,North Carolina,37183,Wake,35.5953,-78.7778
Oakville,Oakville,MO,Missouri,29189,St. Louis,38.4479,-90.3199
West Hollywood,West Hollywood,CA,California,6037,Los Angeles,34.0883,-118.3719
Westmont,Westmont,CA,California,6037,Los Angeles,33.9417,-118.3018
Fruit Cove,Fruit Cove,FL,Florida,12109,St. Johns,30.0972,-81.6175
Benton,Benton,AR,Arkansas,5125,Saline,34.5776,-92.5713
Brunswick,Brunswick,OH,Ohio,39103,Medina,41.2465,-81.8198
Wildwood,Wildwood,MO,Missouri,29189,St. Louis,38.58,-90.6698
Douglasville,Douglasville,GA,Georgia,13097,Douglas,33.7384,-84.7054
Springville,Springville,UT,Utah,49049,Utah,40.1638,-111.6205
San Luis,San Luis,AZ,Arizona,4027,Yuma,32.4911,-114.7089
Watertown Town,Watertown Town,MA,Massachusetts,25017,Middlesex,42.37,-71.1774
Woodstock,Woodstock,GA,Georgia,13057,Cherokee,34.1026,-84.5091
Fair Oaks,Fair Oaks,VA,Virginia,51059,Fairfax,38.8653,-77.3586
Manhattan Beach,Manhattan Beach,CA,California,6037,Los Angeles,33.8894,-118.3967
San Juan Capistrano,San Juan Capistrano,CA,California,6059,Orange,33.5008,-117.6544
Plainfield,Plainfield,IN,Indiana,18063,Hendricks,39.6954,-86.3716
Owings Mills,Owings Mills,MD,Maryland,24005,Baltimore,39.4115,-76.7913
Meridian,Meridian,MS,Mississippi,28075,Lauderdale,32.3846,-88.6896
Cookeville,Cookeville,TN,Tennessee,47141,Putnam,36.1482,-85.5109
Northbrook,Northbrook,IL,Illinois,17031,Cook,42.1292,-87.8352
Fair Lawn,Fair Lawn,NJ,New Jersey,34003,Bergen,40.9359,-74.1177
Monroe,Monroe,NC,North Carolina,37179,Union,35.0063,-80.5596
Richmond,Richmond,KY,Kentucky,21151,Madison,37.7307,-84.2925
University City,University City,MO,Missouri,29189,St. Louis,38.6657,-90.3315
Parkland,Parkland,FL,Florida,12011,Broward,26.3219,-80.2533
Oswego,Oswego,IL,Illinois,17093,Kendall,41.6834,-88.3372
Oildale,Oildale,CA,California,6029,Kern,35.4293,-119.0306
Graham,Graham,WA,Washington,53053,Pierce,47.0322,-122.2827
Mason,Mason,OH,Ohio,39165,Warren,39.3571,-84.3023
Montgomery Village,Montgomery Village,MD,Maryland,24031,Montgomery,39.1788,-77.1954
Long Beach,Long Beach,NY,New York,36059,Nassau,40.5887,-73.666
Hinesville,Hinesville,GA,Georgia,13179,Liberty,31.8248,-81.6137
Golden Glades,Golden Glades,FL,Florida,12086,Miami-Dade,25.9129,-80.2013
Del Rio,Del Rio,TX,Texas,48465,Val Verde,29.3708,-100.8801
Goshen,Goshen,IN,Indiana,18039,Elkhart,41.5743,-85.8309
University Place,University Place,WA,Washington,53053,Pierce,47.2147,-122.5461
Butte,Butte,MT,Montana,30093,Silver Bow,45.902,-112.6571
Huntington Station,Huntington Station,NY,New York,36103,Suffolk,40.8446,-73.405
Pleasant Hill,Pleasant Hill,CA,California,6013,Contra Costa,37.9539,-122.0759
Manitowoc,Manitowoc,WI,Wisconsin,55071,Manitowoc,44.0991,-87.6812
Fairborn,Fairborn,OH,Ohio,39057,Greene,39.801,-84.0094
San Dimas,San Dimas,CA,California,6037,Los Angeles,34.1082,-117.809
Stow,Stow,OH,Ohio,39153,Summit,41.1765,-81.4344
McMinnville,McMinnville,OR,Oregon,41071,Yamhill,45.211,-123.1918
College Park,College Park,MD,Maryland,24033,Prince George's,38.996,-76.9337
Kiryas Joel,Kiryas Joel,NY,New York,36071,Orange,41.3411,-74.1667
Lakewood Ranch,Lakewood Ranch,FL,Florida,12081,Manatee,27.4185,-82.3948
Pueblo West,Pueblo West,CO,Colorado,8101,Pueblo,38.3465,-104.7246
Merritt Island,Merritt Island,FL,Florida,12009,Brevard,28.3139,-80.6708
Lewiston,Lewiston,ID,Idaho,16069,Nez Perce,46.3934,-116.9933
Timberwood Park,Timberwood Park,TX,Texas,48029,Bexar,29.6995,-98.4838
Sahuarita,Sahuarita,AZ,Arizona,4019,Pima,31.9323,-110.9654
Dakota Ridge,Dakota Ridge,CO,Colorado,8059,Jefferson,39.6192,-105.1344
Prairieville,Prairieville,LA,Louisiana,22005,Ascension,30.3151,-90.9571
Redmond,Redmond,OR,Oregon,41017,Deschutes,44.2612,-121.181
Lufkin,Lufkin,TX,Texas,48005,Angelina,31.3217,-94.7277
Pikesville,Pikesville,MD,Maryland,24005,Baltimore,39.3893,-76.702
Eastpointe,Eastpointe,MI,Michigan,26099,Macomb,42.4657,-82.9461
Deer Park,Deer Park,TX,Texas,48201,Harris,29.6898,-95.1151
Cooper City,Cooper City,FL,Florida,12011,Broward,26.0463,-80.2862
Westlake,Westlake,OH,Ohio,39035,Cuyahoga,41.4524,-81.9294
Woodridge,Woodridge,IL,Illinois,17043,DuPage,41.737,-88.0409
Spanaway,Spanaway,WA,Washington,53053,Pierce,47.0979,-122.4233
Valparaiso,Valparaiso,IN,Indiana,18127,Porter,41.4783,-87.0506
American Fork,American Fork,UT,Utah,49049,Utah,40.3783,-111.7953
Windsor,Windsor,CO,Colorado,8123,Weld,40.469,-104.9198
Gadsden,Gadsden,AL,Alabama,1055,Etowah,34.0086,-86.0157
Walla Walla,Walla Walla,WA,Washington,53071,Walla Walla,46.0671,-118.3368
New City,New City,NY,New York,36087,Rockland,41.1542,-73.9912
Kearney,Kearney,NE,Nebraska,31019,Buffalo,40.7011,-99.0833
Leawood,Leawood,KS,Kansas,20091,Johnson,38.9075,-94.6258
Baldwin,Baldwin,NY,New York,36059,Nassau,40.6511,-73.6075
Martinez,Martinez,GA,Georgia,13073,Columbia,33.5209,-82.0985
Crown Point,Crown Point,IN,Indiana,18089,Lake,41.4143,-87.3457
Fallbrook,Fallbrook,CA,California,6073,San Diego,33.3693,-117.2259
Englewood,Englewood,CO,Colorado,8005,Arapahoe,39.6468,-104.9942
East Lake,East Lake,FL,Florida,12103,Pinellas,28.1206,-82.6868
Goldsboro,Goldsboro,NC,North Carolina,37191,Wayne,35.3778,-77.9717
Ken Caryl,Ken Caryl,CO,Colorado,8059,Jefferson,39.577,-105.1144
Canton,Canton,GA,Georgia,13057,Cherokee,34.2467,-84.4897
West Little River,West Little River,FL,Florida,12086,Miami-Dade,25.8571,-80.2367
Alabaster,Alabaster,AL,Alabama,1117,Shelby,33.2198,-86.8225
Bell,Bell,CA,California,6037,Los Angeles,33.9801,-118.1798
Kennesaw,Kennesaw,GA,Georgia,13067,Cobb,34.026,-84.6177
South Riding,South Riding,VA,Virginia,51107,Loudoun,38.912,-77.5132
Menlo Park,Menlo Park,CA,California,6081,San Mateo,37.4685,-122.1673
Buenaventura Lakes,Buenaventura Lakes,FL,Florida,12097,Osceola,28.3349,-81.3539
Bethel Park,Bethel Park,PA,Pennsylvania,42003,Allegheny,40.3238,-80.0364
Petersburg,Petersburg,VA,Virginia,51730,Petersburg,37.2043,-77.3913
Cottonwood Heights,Cottonwood Heights,UT,Utah,49035,Salt Lake,40.6137,-111.8144
Foster City,Foster City,CA,California,6081,San Mateo,37.5553,-122.2659
Uniondale,Uniondale,NY,New York,36059,Nassau,40.7176,-73.5947
Statesboro,Statesboro,GA,Georgia,13031,Bulloch,32.4375,-81.7751
Gillette,Gillette,WY,Wyoming,56005,Campbell,44.2752,-105.4982
Brooklyn Center,Brooklyn Center,MN,Minnesota,27053,Hennepin,45.0681,-93.3162
Los Gatos,Los Gatos,CA,California,6085,Santa Clara,37.2304,-121.9562
Glendale Heights,Glendale Heights,IL,Illinois,17043,DuPage,41.9196,-88.0785
Kingman,Kingman,AZ,Arizona,4015,Mohave,35.217,-114.0105
Chester,Chester,PA,Pennsylvania,42045,Delaware,39.8456,-75.3718
Harker Heights,Harker Heights,TX,Texas,48027,Bell,31.0572,-97.6446
Dana Point,Dana Point,CA,California,6059,Orange,33.4733,-117.6967
Spring Valley,Spring Valley,NY,New York,36087,Rockland,41.1151,-74.0486
Syracuse,Syracuse,UT,Utah,49011,Davis,41.0859,-112.0698
St. Charles,St. Charles,IL,Illinois,17089,Kane,41.9193,-88.3109
Fair Oaks,Fair Oaks,CA,California,6067,Sacramento,38.6504,-121.2496
Sherwood,Sherwood,AR,Arkansas,5119,Pulaski,34.8507,-92.2029
Kaysville,Kaysville,UT,Utah,49011,Davis,41.029,-111.9456
Des Moines,Des Moines,WA,Washington,53033,King,47.3914,-122.3156
Goleta,Goleta,CA,California,6083,Santa Barbara,34.4361,-119.8594
Cibolo,Cibolo,TX,Texas,48187,Guadalupe,29.5634,-98.2115
Andover,Andover,MN,Minnesota,27003,Anoka,45.2571,-93.3265
Rochester,Rochester,NH,New Hampshire,33017,Strafford,43.299,-70.9787
Helena,Helena,MT,Montana,30049,Lewis and Clark,46.5965,-112.0202
Elk Grove Village,Elk Grove Village,IL,Illinois,17031,Cook,42.0064,-87.9921
Spring Valley,Spring Valley,CA,California,6073,San Diego,32.7317,-116.9766
Garfield,Garfield,NJ,New Jersey,34003,Bergen,40.8791,-74.1085
Ferry Pass,Ferry Pass,FL,Florida,12033,Escambia,30.5205,-87.1899
Savage,Savage,MN,Minnesota,27139,Scott,44.7545,-93.3632
Beverly Hills,Beverly Hills,CA,California,6037,Los Angeles,34.0786,-118.4021
Desert Hot Springs,Desert Hot Springs,CA,California,6065,Riverside,33.955,-116.5429
Clearfield,Clearfield,UT,Utah,49011,Davis,41.103,-112.0238
Wheat Ridge,Wheat Ridge,CO,Colorado,8059,Jefferson,39.7728,-105.1028
North Olmsted,North Olmsted,OH,Ohio,39035,Cuyahoga,41.4149,-81.919
Massillon,Massillon,OH,Ohio,39151,Stark,40.7838,-81.5254
Weatherford,Weatherford,TX,Texas,48367,Parker,32.7536,-97.7723
Pasadena,Pasadena,MD,Maryland,24003,Anne Arundel,39.1552,-76.5537
Nacogdoches,Nacogdoches,TX,Texas,48347,Nacogdoches,31.6134,-94.6528
Juneau,Juneau,AK,Alaska,2110,Juneau,58.4546,-134.1739
O'Fallon,O'Fallon,IL,Illinois,17163,St. Clair,38.5974,-89.9148
Pekin,Pekin,IL,Illinois,17179,Tazewell,40.5678,-89.6251
Florence,Florence,KY,Kentucky,21015,Boone,38.9899,-84.6471
Canyon Lake,Canyon Lake,TX,Texas,48091,Comal,29.8761,-98.2611
Rome,Rome,NY,New York,36065,Oneida,43.226,-75.4909
Aiken,Aiken,SC,South Carolina,45003,Aiken,33.5303,-81.7271
Marrero,Marrero,LA,Louisiana,22051,Jefferson,29.8871,-90.1126
Pullman,Pullman,WA,Washington,53075,Whitman,46.7336,-117.168
Franklin Square,Franklin Square,NY,New York,36059,Nassau,40.7002,-73.6775
Long Branch,Long Branch,NJ,New Jersey,34025,Monmouth,40.2965,-73.9915
San Pablo,San Pablo,CA,California,6013,Contra Costa,37.9629,-122.3426
Centereach,Centereach,NY,New York,36103,Suffolk,40.8681,-73.0821
Maryville,Maryville,TN,Tennessee,47009,Blount,35.7468,-83.9789
Cleburne,Cleburne,TX,Texas,48251,Johnson,32.3568,-97.4151
Atwater,Atwater,CA,California,6047,Merced,37.3529,-120.5959
Carlsbad,Carlsbad,NM,New Mexico,35015,Eddy,32.401,-104.2388
Duluth,Duluth,GA,Georgia,13135,Gwinnett,34.0053,-84.1492
Laramie,Laramie,WY,Wyoming,56001,Albany,41.3099,-105.6085
Bangor,Bangor,ME,Maine,23019,Penobscot,44.8323,-68.7906
Dania Beach,Dania Beach,FL,Florida,12011,Broward,26.0593,-80.1637
Garner,Garner,NC,North Carolina,37183,Wake,35.6936,-78.6181
West Bend,West Bend,WI,Wisconsin,55131,Washington,43.4173,-88.1818
Naugatuck,Naugatuck,CT,Connecticut,9140,Naugatuck Valley,41.489,-73.0518
Mundelein,Mundelein,IL,Illinois,17097,Lake,42.2693,-88.0102
Holladay,Holladay,UT,Utah,49035,Salt Lake,40.66,-111.8226
Lawndale,Lawndale,CA,California,6037,Los Angeles,33.8884,-118.3531
Lake Magdalene,Lake Magdalene,FL,Florida,12057,Hillsborough,28.0875,-82.4791
Oak Ridge,Oak Ridge,TN,Tennessee,47001,Anderson,35.9639,-84.2938
Milford Mill,Milford Mill,MD,Maryland,24005,Baltimore,39.3444,-76.7668
Prosper,Prosper,TX,Texas,48085,Collin,33.2394,-96.8087
Oceanside,Oceanside,NY,New York,36059,Nassau,40.6328,-73.6364
Cornelius,Cornelius,NC,North Carolina,37119,Mecklenburg,35.4724,-80.8813
Shawnee,Shawnee,OK,Oklahoma,40125,Pottawatomie,35.3531,-96.9647
New Bern,New Bern,NC,North Carolina,37049,Craven,35.0955,-77.0723
Opelika,Opelika,AL,Alabama,1081,Lee,32.6612,-85.3769
Ithaca,Ithaca,NY,New York,36109,Tompkins,42.4442,-76.5032
Nicholasville,Nicholasville,KY,Kentucky,21113,Jessamine,37.8906,-84.5668
Redan,Redan,GA,Georgia,13089,DeKalb,33.7394,-84.1644
Bel Air North,Bel Air North,MD,Maryland,24025,Harford,39.5543,-76.3732
Port Chester,Port Chester,NY,New York,36119,Westchester,41.0051,-73.668
La Verne,La Verne,CA,California,6037,Los Angeles,34.1207,-117.7703
LaGrange,LaGrange,GA,Georgia,13285,Troup,33.0274,-85.0384
Laguna Hills,Laguna Hills,CA,California,6059,Orange,33.5918,-117.6991
Middle River,Middle River,MD,Maryland,24005,Baltimore,39.3436,-76.4253
Orcutt,Orcutt,CA,California,6083,Santa Barbara,34.8691,-120.4222
Los Altos,Los Altos,CA,California,6085,Santa Clara,37.3684,-122.0965
West Falls Church,West Falls Church,VA,Virginia,51059,Fairfax,38.8648,-77.1878
North Royalton,North Royalton,OH,Ohio,39035,Cuyahoga,41.3138,-81.745
Sterling,Sterling,VA,Virginia,51107,Loudoun,39.0052,-77.405
Hopkinsville,Hopkinsville,KY,Kentucky,21047,Christian,36.8381,-87.4775
Springfield,Springfield,VA,Virginia,51059,Fairfax,38.781,-77.1839
Alamogordo,Alamogordo,NM,New Mexico,35035,Otero,32.8837,-105.9625
Burlingame,Burlingame,CA,California,6081,San Mateo,37.5859,-122.3667
Bethany,Bethany,OR,Oregon,41067,Washington,45.5614,-122.837
Lakeside,Lakeside,FL,Florida,12019,Clay,30.1356,-81.7674
Ballwin,Ballwin,MO,Missouri,29189,St. Louis,38.595,-90.55
SeaTac,SeaTac,WA,Washington,53033,King,47.4444,-122.2986
West Odessa,West Odessa,TX,Texas,48135,Ector,31.8389,-102.5003
North Chicago,North Chicago,IL,Illinois,17097,Lake,42.3172,-87.8595
Westfield,Westfield,NJ,New Jersey,34039,Union,40.6516,-74.3432
Zionsville,Zionsville,IN,Indiana,18011,Boone,39.9897,-86.3182
Santa Paula,Santa Paula,CA,California,6111,Ventura,34.3545,-119.0656
Southlake,Southlake,TX,Texas,48439,Tarrant,32.9545,-97.1503
Saratoga,Saratoga,CA,California,6085,Santa Clara,37.2684,-122.0263
Northport,Northport,AL,Alabama,1125,Tuscaloosa,33.2586,-87.5993
Newark,Newark,DE,Delaware,10003,New Castle,39.6776,-75.7576
Niles,Niles,IL,Illinois,17031,Cook,42.0278,-87.8099
Eagle,Eagle,ID,Idaho,16001,Ada,43.7223,-116.3866
Gurnee,Gurnee,IL,Illinois,17097,Lake,42.3708,-87.9392
Miami Lakes,Miami Lakes,FL,Florida,12086,Miami-Dade,25.9125,-80.3214
Bay Shore,Bay Shore,NY,New York,36103,Suffolk,40.7288,-73.2495
Parkville,Parkville,MD,Maryland,24005,Baltimore,39.3832,-76.5519
San Carlos,San Carlos,CA,California,6081,San Mateo,37.4982,-122.2677
North Tonawanda,North Tonawanda,NY,New York,36063,Niagara,43.0457,-78.8659
Lawrenceville,Lawrenceville,GA,Georgia,13135,Gwinnett,33.9523,-83.9932
Princeton,Princeton,NJ,New Jersey,34021,Mercer,40.3562,-74.6693
New Smyrna Beach,New Smyrna Beach,FL,Florida,12127,Volusia,29.0249,-80.9652
Erie,Erie,CO,Colorado,8123,Weld,40.0404,-105.0399
Austintown,Austintown,OH,Ohio,39099,Mahoning,41.0932,-80.7405
Sanford,Sanford,NC,North Carolina,37105,Lee,35.4875,-79.177
Eldersburg,Eldersburg,MD,Maryland,24013,Carroll,39.4041,-76.9528
Seguin,Seguin,TX,Texas,48187,Guadalupe,29.5891,-97.9676
Liberty,Liberty,MO,Missouri,29047,Clay,39.2394,-94.4191
Bella Vista,Bella Vista,AR,Arkansas,5007,Benton,36.4667,-94.2707
Drexel Heights,Drexel Heights,AZ,Arizona,4019,Pima,32.1453,-111.048
Highland Park,Highland Park,IL,Illinois,17097,Lake,42.1823,-87.8104
Middletown,Middletown,NY,New York,36071,Orange,41.4459,-74.4236
Bowling Green,Bowling Green,OH,Ohio,39173,Wood,41.3776,-83.6495
Granger,Granger,IN,Indiana,18141,St. Joseph,41.7374,-86.1348
Monterey,Monterey,CA,California,6053,Monterey,36.5919,-121.8808
Winter Park,Winter Park,FL,Florida,12095,Orange,28.5989,-81.3442
East Niles,East Niles,CA,California,6029,Kern,35.3683,-118.9225
Chamblee,Chamblee,GA,Georgia,13089,DeKalb,33.8842,-84.3007
Vero Beach South,Vero Beach South,FL,Florida,12061,Indian River,27.6132,-80.4163
Southgate,Southgate,MI,Michigan,26163,Wayne,42.2047,-83.2057
Banning,Banning,CA,California,6065,Riverside,33.946,-116.8992
Galesburg,Galesburg,IL,Illinois,17095,Knox,40.9506,-90.3763
Algonquin,Algonquin,IL,Illinois,17111,McHenry,42.1629,-88.3159
Gloucester,Gloucester,MA,Massachusetts,25009,Essex,42.626,-70.6897
Fitchburg,Fitchburg,WI,Wisconsin,55025,Dane,42.9859,-89.4255
Fleming Island,Fleming Island,FL,Florida,12019,Clay,30.0988,-81.7124
Raytown,Raytown,MO,Missouri,29095,Jackson,38.9944,-94.4641
San Lorenzo,San Lorenzo,CA,California,6001,Alameda,37.6733,-122.1332
Atascadero,Atascadero,CA,California,6079,San Luis Obispo,35.4827,-120.6858
Morrisville,Morrisville,NC,North Carolina,37183,Wake,35.8368,-78.8348
Fridley,Fridley,MN,Minnesota,27003,Anoka,45.0841,-93.2595
Summerlin South,Summerlin South,NV,Nevada,32003,Clark,36.1242,-115.3324
Paragould,Paragould,AR,Arkansas,5055,Greene,36.0555,-90.5149
Hazleton,Hazleton,PA,Pennsylvania,42079,Luzerne,40.9505,-75.9725
Rahway,Rahway,NJ,New Jersey,34039,Union,40.6077,-74.2807
Lathrop,Lathrop,CA,California,6077,San Joaquin,37.809,-121.3131
Matthews,Matthews,NC,North Carolina,37119,Mecklenburg,35.1195,-80.7101
Laurel,Laurel,MD,Maryland,24033,Prince George's,39.0949,-76.8622
Schererville,Schererville,IN,Indiana,18089,Lake,41.4861,-87.4442
Hobart,Hobart,IN,Indiana,18089,Lake,41.514,-87.2729
Burton,Burton,MI,Michigan,26049,Genesee,42.9974,-83.6175
Eastern Goleta Valley,Eastern Goleta Valley,CA,California,6083,Santa Barbara,34.4448,-119.7879
East Palo Alto,East Palo Alto,CA,California,6081,San Mateo,37.4671,-122.1352
Central,Central,LA,Louisiana,22033,East Baton Rouge,30.5593,-91.0369
Hutto,Hutto,TX,Texas,48491,Williamson,30.5396,-97.544
Fountain,Fountain,CO,Colorado,8041,El Paso,38.6886,-104.6829
Garfield Heights,Garfield Heights,OH,Ohio,39035,Cuyahoga,41.4199,-81.6038
Oak Park,Oak Park,MI,Michigan,26125,Oakland,42.4649,-83.1824
Greenville,Greenville,MS,Mississippi,28151,Washington,33.385,-91.0514
Melrose,Melrose,MA,Massachusetts,25017,Middlesex,42.4556,-71.059
